fiscal_year,system_code,location_code,location_name,beds,managed_by_name,location_type_description,location_category_description,grades_text,grades_final_text,open_date,status_descriptions,primary_building_code,primary_address_line_1,state_code,x_coordinate,y_coordinate,longitude,latitude,community_district,council_district,census_tract,borough_block_lot,nta,nta_name,principal_name,principal_title,principal_phone_number,fax_number,geographical_district_code,administrative_district_code,administrative_district_name,community_school_sup_name,tier_3_support_location_name,tier_3_support_leader_name,tier_2_support_location_name,highschool_network_location,highschool_network_name,highschool_network,community_district_1,police_precinct
2020,11X135,X135,J.H.S. 135 Frank D. Whalen,321100010135,DOE,General Academic,Junior High-Intermediate-Middle,NULL,"06,07,08",1955-07-01T00:00:00.000,Closed,X135,2441 WALLACE AVENUE,NY,1021709,253396,-73.8646,40.8621,211,13,33000,2044320001,BX07,Bronxdale,ANGELA GREEN,Principal,718-653-1237,718-231-2957,11,11,COMMUNITY SCHOOL DISTRICT 11,Elizabeth White,NULL,NULL,NULL,NULL,NULL,NULL,211,49
2020,75M401,M401,Hospital Schools,307500011401,DOE,Special Education,K-12 all grades,"PK,0K,01,02,03,04,05,06,07,08,09,10,11,12,SE","01,02,03,04,05,06,07,08,09,10,11,12,SE",1999-07-01T00:00:00.000,Open,X953,3450 EAST TREMONT AVENUE,NY,1031947,242382,-73.827642,40.831829,210,13,16600,2055310021,BX52,Schuylerville-Throgs Neck-Edgewater Park,MARY MAHER,Principal,718-794-7260,718-794-7263,8,75,CITYWIDE SPECIAL EDUCATION,"LOUISSAINT, KETLER",D75 CITYWIDE BCO,Tillman Roberto,Children First Network 754,NULL,NULL,NULL,210,45
2020,75M501,M501,Home Instruction,307500010000,DOE,Home School,K-12 all grades,"01,02,03,04,05,06,07,08,09,10,11,12,SE","01,02,03,04,05,06,07,08,09,10,11,12",2000-07-01T00:00:00.000,Open,X953,3450 EAST TREMONT AVENUE,NY,1031947,242382,-73.827642,40.831829,210,13,16600,2055310021,BX52,Schuylerville-Throgs Neck-Edgewater Park,Ramona Pizarro,Principal,646-486-3557,646-486-3556,8,75,CITYWIDE SPECIAL EDUCATION,"LOUISSAINT, KETLER",D75 CITYWIDE BCO,Tillman Roberto,Children First Network 754,NULL,NULL,NULL,210,45
2020,09X002,X002,P.S. 002 Morrisania,320900010002,DOE,General Academic,Elementary,"05,SE","0K,01,02,03,04,05",1990-12-06T00:00:00.000,Closed,X063,1260 FRANKLIN AVENUE,NY,1011409,242023,-73.901859,40.83093,203,16,14900,2026150014,BX35,Morrisania-Melrose,LISA DEBONIS,PRINCIPAL,718-620-0724,718-620-1292,9,9,COMMUNITY SCHOOL DISTRICT 09,"ESPOSITO, DOLORES",NULL,NULL,NULL,NULL,NULL,NULL,203,42
2020,07X001,X001,P.S. 001 Courtlandt School,320700010001,DOE,General Academic,Elementary,"PK,0K,01,02,03,04,05,SE","PK,0K,01,02,03,04,05",1961-07-01T00:00:00.000,Open,X001,335 EAST 152 STREET,NY,1006494,237792,-73.919634,40.819331,201,17,6700,2024110119,BX34,Melrose South-Mott Haven North,JORGE PERDOMO,Principal,718-299-3700,718-292-2227,7,7,COMMUNITY SCHOOL DISTRICT 07,"ALVAREZ, RAFAEL",NYCDOE Borough Office - Bronx,"SAFFER, NANCY",School Support Team 6- Bronx,NULL,NULL,NULL,201,40
2020,10X003,X003,P.S. 3 Raul Julia Micro Society,321000010003,DOE,General Academic,K-8,"PK,0K,01,02,03,04,05,06,07,08,SE","PK,0K,01,02,03,04,05,06,07,08",1995-07-01T00:00:00.000,Open,X003,2100 LAFONTAINE AVENUE,NY,1014231,249022,-73.89163,40.850131,206,15,37504,2030620043,BX17,East Tremont,DENISE BROWN,Principal,718-584-1899,718-584-3590,10,10,COMMUNITY SCHOOL DISTRICT 10,"HULLA, MARIBEL",NYCDOE Borough Office - Bronx,"SAFFER, NANCY",School Support Team 4- Bronx,NULL,NULL,NULL,206,48
2020,09X004,X004,P.S./M.S. 004 Crotona Park West,320900010004,DOE,General Academic,K-8,"PK,0K,01,02,03,04,05,06,07,08,SE","0K,01,02,03,04,05,06,07,08",1897-07-01 00:00:00.000,Open,X004,1701 FULTON AVENUE,NY,1012488,245969,-73.897943,40.841758,203,15,16500,2029300075,BX01,Claremont-Bathgate,VINCENT RESTO,Principal,718-583-6655,718-583-6668,9,9,COMMUNITY SCHOOL DISTRICT 09,"RODRIGUEZ-ROSARIO, LETICIA",NYCDOE Borough Office - Bronx,"SAFFER, NANCY",School Support Team 8- Bronx,NULL,NULL,NULL,203,42
2020,07X005,X005,P.S. 5 Port Morris,320700010005,DOE,General Academic,K-8,"PK,0K,01,02,03,04,05,06,07,08,SE","PK,0K,01,02,03,04,05,06,07,08",1961-07-01T00:00:00.000,Open,X005,564 JACKSON AVENUE,NY,1009617,235815,-73.908358,40.813896,201,8,7300,2026420001,BX34,Melrose South-Mott Haven North,DANIELLE KEANE,Principal,718-292-2683,718-292-2495,7,7,COMMUNITY SCHOOL DISTRICT 07,"ALVAREZ, RAFAEL",NYCDOE Borough Office - Bronx,"SAFFER, NANCY",School Support Team 6- Bronx,NULL,NULL,NULL,201,40
2020,12X006,X006,P.S. 006 West Farms,321200010006,DOE,General Academic,Elementary,"PK,0K,01,02,03,04,05,SE","PK,0K,01,02,03,04,05",1904-07-01T00:00:00.000,Open,X006,1000 EAST TREMONT AVENUE,NY,1016753,245496,-73.882531,40.840445,206,17,35900,2030050010,BX17,East Tremont,Tiawana Perez,Principal,718-542-7676,718-589-7278,12,12,COMMUNITY SCHOOL DISTRICT 12,"ROSADO, JACQUELINE",NYCDOE Borough Office - Bronx,"SAFFER, NANCY",School Support Team 5- Bronx,NULL,NULL,NULL,206,48
2020,10X007,X007,Milton Fein School,321000010007,DOE,General Academic,Elementary,"0K,01,02,03,04,05,SE","0K,01,02,03,04,05",1929-07-01T00:00:00.000,Open,X007,3201 KINGSBRIDGE AVENUE,NY,1010327,260469,-73.905697,40.881562,208,11,28700,2057560195,BX29,Spuyten Duyvil-Kingsbridge,MIOSOTIS RAMOS,Principal,718-796-8695,718-796-7204,10,10,COMMUNITY SCHOOL DISTRICT 10,"HULLA, MARIBEL",NYCDOE Borough Office - Bronx,"SAFFER, NANCY",School Support Team 4- Bronx,NULL,NULL,NULL,208,50
2020,10X008,X008,P.S. 008 Isaac Varian,321000010008,DOE,General Academic,Elementary,"PK,0K,01,02,03,04,05,SE","0K,01,02,03,04,05",1958-07-01T00:00:00.000,Open,X008,3010 BRIGGS AVENUE,NY,1016514,257087,-73.883339,40.872259,207,11,41500,2032990060,BX05,Bedford Park-Fordham North,CLAUDIA TAHIRAJ-SADRIJA,Principal,718-584-3043,718-584-7376,10,10,COMMUNITY SCHOOL DISTRICT 10,"HULLA, MARIBEL",NYCDOE Borough Office - Bronx,"SAFFER, NANCY",School Support Team 3- Bronx,NULL,NULL,NULL,207,52
2020,10X009,X009,P.S. 9 Ryer Avenue Elementary School,321000010009,DOE,General Academic,Elementary,"PK,0K,01,02,03,04,05,SE","PK,0K,01,02,03,04,05",1938-07-01T00:00:00.000,Open,X009,230 EAST 183 STREET,NY,1012239,251318,-73.898821,40.85644,205,15,38301,2031500010,BX40,Fordham South,JACQUELINE BAILEY,Principal,718-584-3291,718-584-7579,10,10,COMMUNITY SCHOOL DISTRICT 10,"HULLA, MARIBEL",NYCDOE Borough Office - Bronx,"SAFFER, NANCY",School Support Team 3- Bronx,NULL,NULL,NULL,205,46
2020,75X010,X010,P.S. X010,307500012010,DOE,Special Education,K-12 all grades,"PK,0K,01,02,03,04,05,06,07,08,09,10,11,12,SE","PK,0K,01,02,SE",1995-12-12T00:00:00.000,Open,X101,2750 LAFAYETTE AVENUE,NY,1031516,240651,-73.829211,40.82708,210,13,15200,2055470001,BX52,Schuylerville-Throgs Neck-Edgewater Park,Christophe Reda,Principal,718-828-4022,718-823-1573,8,75,CITYWIDE SPECIAL EDUCATION,"LOUISSAINT, KETLER",D75 CITYWIDE BCO,Tillman Roberto,Children First Network 751,NULL,NULL,NULL,210,45
2020,09X011,X011,P.S. 011 Highbridge,320900010011,DOE,General Academic,Elementary,"PK,0K,01,02,03,04,05,SE","0K,01,02,03,04",1890-07-01 00:00:00.000,Open,X011,1257 OGDEN AVENUE,NY,1004756,245209,-73.92589,40.839693,204,16,20100,2025290081,BX26,Highbridge,JOAN KONG,Principal,718-681-7553,718-681-7711,9,9,COMMUNITY SCHOOL DISTRICT 09,"RODRIGUEZ-ROSARIO, LETICIA",NYCDOE Borough Office - Bronx,"SAFFER, NANCY",School Support Team 8- Bronx,NULL,NULL,NULL,204,44
2020,75X012,X012,P.S. X012 Lewis and Clark School,307500012012,DOE,Special Education,Secondary School,"06,07,08,09,10,11,12,SE","03,04,05,06,07,08,09,10,11,12,SE",1966-07-01T00:00:00.000,Open,X012,2555 TRATMAN AVENUE,NY,1027225,245578,-73.844685,40.840625,210,13,20000,2039830001,BX37,Van Nest-Morris Park-Westchester Square,KUVANA JONES SANDERS,Principal,718-409-9040,718-931-8121,11,75,CITYWIDE SPECIAL EDUCATION,"LOUISSAINT, KETLER",D75 CITYWIDE BCO,Tillman Roberto,Children First Network 754,NULL,NULL,NULL,210,45
2020,08X014,X014,P.S. X014 Senator John Calandra,320800010014,DOE,General Academic,Elementary,"0K,01,02,03,04,05,SE","0K,01,02,03,04,05",1928-07-01T00:00:00.000,Open,X014,3047 BRUCKNER BOULEVARD,NY,1032322,243654,-73.826277,40.835318,210,13,18400,2053130092,BX52,Schuylerville-Throgs Neck-Edgewater Park,Ira Schulman,Principal,718-822-5341,718-239-6386,8,8,COMMUNITY SCHOOL DISTRICT 08,"TOBIA, ERIKA",NYCDOE Borough Office - Bronx,"SAFFER, NANCY",School Support Team 7- Bronx,NULL,NULL,NULL,210,45
2020,10X015,X015,P.S. X015 Institute for Environmental Learning,321000010015,DOE,General Academic,K-8,"0K,01,02,03,04,05,06,07,08,SE","0K,01,02,03,04,05,06,07,08",1995-07-01T00:00:00.000,Open,X015,2195 ANDREWS AVENUE,NY,1009211,252336,-73.909763,40.859243,207,14,25500,2032240009,BX30,Kingsbridge Heights,Tara Edmonds,Principal,718-563-0473,718-563-1568,10,10,COMMUNITY SCHOOL DISTRICT 10,"HULLA, MARIBEL",NYCDOE Borough Office - Bronx,"SAFFER, NANCY",School Support Team 3- Bronx,NULL,NULL,NULL,207,52
2020,11X016,X016,P.S. 016 Wakefield,321100010016,DOE,General Academic,Elementary,"PK,0K,01,02,03,04,05,SE","PK,0K,01,02,03,04,05",1909-07-01T00:00:00.000,Open,X016,4550 CARPENTER AVENUE,NY,1024546,268048,-73.854231,40.902311,212,11,41400,2050760031,BX62,Woodlawn-Wakefield,Eduardo Calderon,Principal,718-324-1262,718-324-8370,11,11,COMMUNITY SCHOOL DISTRICT 11,"VAUGHAN, CRISTINE",NYCDOE Borough Office - Bronx,"SAFFER, NANCY",School Support Team 9- Bronx,NULL,NULL,NULL,212,47
2020,75X017,X017,P.S. X017,307500012017,DOE,Special Education,K-8,"0K,01,02,03,04,05,06,07,08,09,10,11,12,SE","01,02,03,04,05,06,07,08,09,SE",1991-09-12T00:00:00.000,Open,X184,778 FOREST AVENUE,NY,1010437,237567,-73.905389,40.818703,201,17,7700,2026550030,BX34,Melrose South-Mott Haven North,MARLIN HOGGARD,Principal,718-665-5617,718-665-6372,7,75,CITYWIDE SPECIAL EDUCATION,"LOUISSAINT, KETLER",D75 CITYWIDE BCO,Tillman Roberto,Children First Network 752,NULL,NULL,NULL,201,40
2020,07X018,X018,P.S. 018 John Peter Zenger,320700010018,DOE,General Academic,Elementary,"PK,0K,01,02,03,04,05,SE","PK,0K,01,02,03,04,05",1952-07-01T00:00:00.000,Open,X018,502 MORRIS AVENUE,NY,1005647,236712,-73.922697,40.816369,201,8,5100,2023240008,BX39,Mott Haven-Port Morris,Lauren Sewell Walker,Principal,718-292-2868,718-292-2862,7,7,COMMUNITY SCHOOL DISTRICT 07,"ALVAREZ, RAFAEL",NYCDOE Borough Office - Bronx,"SAFFER, NANCY",School Support Team 6- Bronx,NULL,NULL,NULL,201,40
2020,11X019,X019,P.S. 019 Judith K. Weiss,321100010019,DOE,General Academic,K-8,"0K,01,02,03,04,05,06,07,08,SE","0K,01,02,03,04,05,06,07,08",1925-07-01T00:00:00.000,Open,X019,4318 KATONAH AVENUE,NY,1021032,266964,-73.866949,40.899351,212,11,45102,2033860001,BX62,Woodlawn-Wakefield,Ellen Obrien,I.A. Principal,718-324-1924,718-994-9132,11,11,COMMUNITY SCHOOL DISTRICT 11,"VAUGHAN, CRISTINE",NYCDOE Borough Office - Bronx,"SAFFER, NANCY",School Support Team 9- Bronx,NULL,NULL,NULL,212,47
2020,10X020,X020,"PS/MS 20 P.O.George J. Werdann, III",321000010020,DOE,General Academic,K-8,"PK,0K,01,02,03,04,05,06,07,08,SE","PK,0K,01,02,03,04,05,06,07,08",1996-07-01T00:00:00.000,Open,X020,3050 WEBSTER AVENUE,NY,1017790,256077,-73.878731,40.869482,207,11,42500,2033300001,BX43,Norwood,CARLA LING,Principal,718-515-9370,718-515-9378,10,10,COMMUNITY SCHOOL DISTRICT 10,"HULLA, MARIBEL",NYCDOE Borough Office - Bronx,"SAFFER, NANCY",School Support Team 4- Bronx,NULL,NULL,NULL,207,52
2020,11X021,X021,P.S. 021 Philip H. Sheridan,321100010021,DOE,General Academic,Elementary,"0K,01,02,03,04,05,SE","0K,01,02,03,04,05",1915-07-01T00:00:00.000,Open,X021,715 EAST 225 STREET,NY,1023120,262791,-73.85942,40.887888,212,12,40600,2048390039,BX44,Williamsbridge-Olinville,JOYCE COLEMAN,Principal,718-652-3903,718-231-2556,11,11,COMMUNITY SCHOOL DISTRICT 11,"VAUGHAN, CRISTINE",NYCDOE Borough Office - Bronx,"SAFFER, NANCY",School Support Team 9- Bronx,NULL,NULL,NULL,212,47
2020,09X022,X022,J.H.S. 022 Jordan L. Mott,320900010022,DOE,General Academic,Junior High-Intermediate-Middle,"06,07,08,SE","05,06,07,08",1949-07-01T00:00:00.000,Open,X022,270 EAST 167 STREET,NY,1007952,242417,-73.91435,40.832022,204,16,17500,2024380050,BX14,East Concourse-Concourse Village,BRANDY FRANKLIN,Acting Principal,718-681-6850,718-681-6895,9,9,COMMUNITY SCHOOL DISTRICT 09,"RODRIGUEZ-ROSARIO, LETICIA",NYCDOE Borough Office - Bronx,"SAFFER, NANCY",School Support Team 8- Bronx,NULL,NULL,NULL,204,44
2020,10X023,X023,P.S. 023 The New Children's School,321000010023,DOE,General Academic,Elementary,"PK,0K,01,02,03,04,05,SE","PK,0K,01,02,03,04,05",1991-07-01T00:00:00.000,Open,X023,2151 WASHINGTON AVENUE,NY,1013311,250173,-73.894951,40.853294,206,15,39500,2030370079,BX01,Claremont-Bathgate,SHIRLEY TORRES,Principal,718-584-3992,718-584-7252,10,10,COMMUNITY SCHOOL DISTRICT 10,"HULLA, MARIBEL",NYCDOE Borough Office - Bronx,"SAFFER, NANCY",School Support Team 3- Bronx,NULL,NULL,NULL,206,48
2020,10X024,X024,P.S. 024 Spuyten Duyvil,321000010024,DOE,General Academic,Elementary,"0K,01,02,03,04,05,SE","0K,01,02,03,04,05",1953-07-01T00:00:00.000,Open,X024,660 WEST 236 STREET,NY,1007721,262419,-73.915114,40.886922,208,11,30900,2059170140,BX22,North Riverdale-Fieldston-Riverdale,Steven Schwartz,Principal,718-796-8845,718-796-7243,10,10,COMMUNITY SCHOOL DISTRICT 10,"HULLA, MARIBEL",NYCDOE Borough Office - Bronx,"SAFFER, NANCY",School Support Team 4- Bronx,NULL,NULL,NULL,208,50
2020,07X025,X025,P.S. 025 Bilingual School,320700010025,DOE,General Academic,Elementary,"PK,0K,01,02,03,04,05,SE","PK,0K,01,02,03,04,05,SE",1897-07-01 00:00:00.000,Open,X025,811 EAST 149 STREET,NY,1010339,235451,-73.905751,40.812895,201,8,7900,2026640001,BX34,Melrose South-Mott Haven North,Carmen Toledo-Guerrero,Principal,718-292-2995,718-292-2997,7,7,COMMUNITY SCHOOL DISTRICT 07,"ALVAREZ, RAFAEL",NYCDOE Borough Office - Bronx,"SAFFER, NANCY",School Support Team 6- Bronx,NULL,NULL,NULL,201,40
2020,09X028,X028,P.S. 028 Mount Hope,320900010028,DOE,General Academic,Elementary,"PK,0K,01,02,03,04,05,SE","PK,0K,01,02,03,04,05",1897-07-01 00:00:00.000,Open,X028,1861 ANTHONY AVENUE,NY,1010859,248367,-73.903821,40.848344,205,15,23302,2028040031,BX41,Mount Hope,Stephen Beckles,Principal,718-583-6444,718-583-6537,9,9,COMMUNITY SCHOOL DISTRICT 09,"RODRIGUEZ-ROSARIO, LETICIA",NYCDOE Borough Office - Bronx,"SAFFER, NANCY",School Support Team 8- Bronx,NULL,NULL,NULL,205,46
2020,07X029,X029,P.S./M.S. 029 Melrose School,320700010029,DOE,General Academic,K-8,"PK,0K,01,02,03,04,05,06,07,08,SE","PK,0K,01,02,03,04,05,06,07,08",1963-07-01T00:00:00.000,Open,X029,758 COURTLANDT AVENUE,NY,1007383,238599,-73.916419,40.821544,201,17,6900,2024030001,BX34,Melrose South-Mott Haven North,Danielle Presto,Principal,718-292-3785,718-292-3784,7,7,COMMUNITY SCHOOL DISTRICT 07,"ALVAREZ, RAFAEL",NYCDOE Borough Office - Bronx,"SAFFER, NANCY",School Support Team 6- Bronx,NULL,NULL,NULL,201,40
2020,07X030,X030,P.S. 030 Wilton,320700010030,DOE,General Academic,Elementary,"PK,0K,01,02,03,04,05,SE","PK,0K,01,02,03,04,05",1924-07-01T00:00:00.000,Open,X030,510 EAST 141 STREET,NY,1007111,234037,-73.917417,40.809023,201,8,3900,2022670015,BX39,Mott Haven-Port Morris,Debra Michaux,Principal,718-292-8817,718-292-3962,7,7,COMMUNITY SCHOOL DISTRICT 07,"ALVAREZ, RAFAEL",NYCDOE Borough Office - Bronx,"SAFFER, NANCY",School Support Team 6- Bronx,NULL,NULL,NULL,201,40
2020,07X031,X031,P.S./M.S. 031 The William Lloyd Garrison,320700010031,DOE,General Academic,K-8,"PK,0K,01,02,03,04,05,06,07,08,SE","PK,0K,01,02,03,04,05,06,07,08",1899-09-01 00:00:00.000,Open,X151,250 EAST 156 STREET,NY,1006076,238973,-73.92114,40.822574,204,17,6100,2024430190,BX14,East Concourse-Concourse Village,William Hewlett,I.A. Principal,718-292-4397,718-292-4399,7,7,COMMUNITY SCHOOL DISTRICT 07,"ALVAREZ, RAFAEL",NYCDOE Borough Office - Bronx,"SAFFER, NANCY",School Support Team 6- Bronx,NULL,NULL,NULL,204,44
2020,10X032,X032,P.S. 032 Belmont,321000010032,DOE,General Academic,Elementary,"PK,0K,01,02,03,04,05,SE","0K,01,02,03,04,05",1899-07-01 00:00:00.000,Open,X032,690 EAST 183 STREET,NY,1015727,249604,-73.88622,40.851724,206,15,39100,2030850001,BX06,Belmont,Rebecca Lew,Principal,718-584-3645,718-584-7927,10,10,COMMUNITY SCHOOL DISTRICT 10,"HULLA, MARIBEL",NYCDOE Borough Office - Bronx,"SAFFER, NANCY",School Support Team 4- Bronx,NULL,NULL,NULL,206,48
2020,10X033,X033,P.S. 033 Timothy Dwight,321000010033,DOE,General Academic,Elementary,"PK,0K,01,02,03,04,05,SE","PK,0K,01,02,03,04,05",1899-07-01 00:00:00.000,Open,X033,2424 JEROME AVENUE,NY,1011560,253233,-73.901268,40.861698,205,14,23900,2031880020,BX40,Fordham South,LYNETTE SANTOS,Principal,718-584-3926,718-584-7004,10,10,COMMUNITY SCHOOL DISTRICT 10,"HULLA, MARIBEL",NYCDOE Borough Office - Bronx,"SAFFER, NANCY",School Support Team 4- Bronx,NULL,NULL,NULL,205,46
2020,09X035,X035,P.S. 035 Franz Siegel,320900010035,DOE,General Academic,Elementary,"0K,01,02,03,04,05,SE","0K,01,02,03,04,05",1903-07-01T00:00:00.000,Open,X035,261 EAST 163 STREET,NY,1007025,240954,-73.917705,40.828009,204,16,18302,2024460043,BX14,East Concourse-Concourse Village,GRACIELA NAVARRO,Principal,718-681-7214,718-681-7264,9,9,COMMUNITY SCHOOL DISTRICT 09,"RODRIGUEZ-ROSARIO, LETICIA",NYCDOE Borough Office - Bronx,"SAFFER, NANCY",School Support Team 8- Bronx,NULL,NULL,NULL,204,44
2020,08X036,X036,P.S. 036 Unionport,320800010036,DOE,General Academic,Elementary,"PK,0K,01,02,03,04,05,SE","PK,0K,01,02,03,04,05",1901-07-01T00:00:00.000,Open,X036,1070 CASTLE HILL AVENUE,NY,1025819,241515,-73.849791,40.82948,209,18,7800,2038170001,BX59,Westchester-Unionport,Elvira Maresca,Principal,718-822-5345,718-239-6390,8,8,COMMUNITY SCHOOL DISTRICT 08,"TOBIA, ERIKA",NYCDOE Borough Office - Bronx,"SAFFER, NANCY",School Support Team 7- Bronx,NULL,NULL,NULL,209,43
2020,10X037,X037,P.S. X037 - Multiple Intelligence School,321000010037,DOE,General Academic,K-8,"0K,01,02,03,04,05,06,07,08,SE","0K,01,02,03,04,05,06,07,08",1994-07-01T00:00:00.000,Open,X037,360 WEST 230 STREET,NY,1008117,259145,-73.913694,40.877935,208,11,29302,2057160725,BX29,Spuyten Duyvil-Kingsbridge,KENNETH PETRICCIONE,Principal,718-796-0360,718-796-0054,10,10,COMMUNITY SCHOOL DISTRICT 10,"HULLA, MARIBEL",NYCDOE Borough Office - Bronx,"SAFFER, NANCY",School Support Team 3- Bronx,NULL,NULL,NULL,208,50
2020,08X039,X039,PS 39,320800010039,DOE,General Academic,Early Childhood,NULL,"0K,01",1905-07-01T00:00:00.000,Closed,X039,965 LONGWOOD AVENUE,NY,1012424,237135,-73.8982,40.8175,202,17,8700,2027100001,BX33,Longwood,NULL,NULL,718-620-0943,718-620-0958,8,8,COMMUNITY SCHOOL DISTRICT 08,Dov Rokeach,NULL,NULL,NULL,NULL,NULL,NULL,202,41
2020,11X041,X041,P.S. 041 Gun Hill Road,321100010041,DOE,General Academic,Elementary,"0K,01,02,03,04,05,SE","0K,01,02,03,04,05",1905-07-01T00:00:00.000,Open,X041,3352 OLINVILLE AVENUE,NY,1020801,258002,-73.867834,40.874754,212,12,37400,2046240015,BX44,Williamsbridge-Olinville,Michelle Moore,Principal,718-652-3461,718-231-2668,11,11,COMMUNITY SCHOOL DISTRICT 11,"VAUGHAN, CRISTINE",NYCDOE Borough Office - Bronx,"SAFFER, NANCY",School Support Team 9- Bronx,NULL,NULL,NULL,212,47
2020,09X042,X042,P.S. 042 Claremont,320900010042,DOE,General Academic,Elementary,"PK,0K,01,02,03,04,05,SE","PK,0K,01,02,03,04,05",1906-07-01T00:00:00.000,Open,X042,1537 WASHINGTON AVENUE,NY,1011023,244830,-73.903243,40.838636,203,16,16900,2029030023,BX01,Claremont-Bathgate,LUCIA ORDUZ CASTILLO,Principal,718-583-7366,718-583-7345,9,9,COMMUNITY SCHOOL DISTRICT 09,"RODRIGUEZ-ROSARIO, LETICIA",NYCDOE Borough Office - Bronx,"SAFFER, NANCY",School Support Team 8- Bronx,NULL,NULL,NULL,203,42
2020,07X043,X043,P.S. 043 Jonas Bronck,320700010043,DOE,General Academic,Elementary,"PK,0K,01,02,03,04,05,SE","PK,0K,01,02,03,04,05",1906-07-01T00:00:00.000,Open,X043,165 BROWN PLACE,NY,1005956,233099,-73.921593,40.806452,201,8,2500,2022800040,BX39,Mott Haven-Port Morris,DR. GIOVANNA DELUCCHI,Principal,718-292-4502,718-292-4504,7,7,COMMUNITY SCHOOL DISTRICT 07,"ALVAREZ, RAFAEL",NYCDOE Borough Office - Bronx,"SAFFER, NANCY",School Support Team 6- Bronx,NULL,NULL,NULL,201,40
2020,12X044,X044,P.S. 044 David C. Farragut,321200010044,DOE,General Academic,Elementary,"PK,0K,01,02,03,04,05,SE","PK,0K,01,02,03,04,05",1911-07-01T00:00:00.000,Open,X044,1825 PROSPECT AVENUE,NY,1014385,246265,-73.891086,40.842564,206,17,36902,2029490064,BX17,East Tremont,Melissa Harrow,Principal,718-583-2360,718-901-4068,12,12,COMMUNITY SCHOOL DISTRICT 12,"ROSADO, JACQUELINE",NYCDOE Borough Office - Bronx,"SAFFER, NANCY",School Support Team 5- Bronx,NULL,NULL,NULL,206,48
2020,10X045,X045,Thomas C. Giordano Middle School 45,321000010045,DOE,General Academic,Junior High-Intermediate-Middle,"06,07,08,SE","06,07,08",1912-07-01T00:00:00.000,Open,X045,2502 LORILLARD PLACE,NY,1015501,252032,-73.887026,40.858389,206,15,38700,2030670001,BX06,Belmont,ANNAMARIA PERROTTA,Principal,718-584-1660,718-584-7968,10,10,COMMUNITY SCHOOL DISTRICT 10,"HULLA, MARIBEL",NYCDOE Borough Office - Bronx,"SAFFER, NANCY",School Support Team 3- Bronx,NULL,NULL,NULL,206,48
2020,10X046,X046,P.S. 046 Edgar Allan Poe,321000010046,DOE,General Academic,Elementary,"0K,01,02,03,04,05,SE","0K,01,02,03,04,05",1911-07-01T00:00:00.000,Open,X046,279 EAST 196 STREET,NY,1014563,255230,-73.890402,40.867169,207,15,40501,2032950001,BX05,Bedford Park-Fordham North,JENNIFER ALEXANDER ADE,Principal,718-584-4450,718-584-7402,10,10,COMMUNITY SCHOOL DISTRICT 10,"HULLA, MARIBEL",NYCDOE Borough Office - Bronx,"SAFFER, NANCY",School Support Team 4- Bronx,NULL,NULL,NULL,207,52
2020,12X047,X047,P.S. 047 John Randolph,321200010047,DOE,General Academic,Elementary,"0K,01,02,03,04,05,SE","0K,01,02,03,04,05",1912-07-01T00:00:00.000,Open,X047,1794 EAST 172 STREET,NY,1021062,242618,-73.866974,40.832529,209,18,7600,2037860016,BX08,West Farms-Bronx River,THOMAS GUARNIERI,Principal,718-824-0950,718-904-1166,12,12,COMMUNITY SCHOOL DISTRICT 12,"ROSADO, JACQUELINE",NYCDOE Borough Office - Bronx,"SAFFER, NANCY",School Support Team 5- Bronx,NULL,NULL,NULL,209,43
2020,08X048,X048,P.S. 048 Joseph R. Drake,320800010048,DOE,General Academic,Elementary,"PK,0K,01,02,03,04,05,SE","PK,0K,01,02,03,04,05",1916-07-01T00:00:00.000,Open,X048,1290 SPOFFORD AVENUE,NY,1015575,235872,-73.886834,40.814034,202,17,9300,2027660001,BX27,Hunts Point,JOSEPH DICRESCENTO,Principal,718-589-4312,718-842-6993,8,8,COMMUNITY SCHOOL DISTRICT 08,"TOBIA, ERIKA",NYCDOE Borough Office - Bronx,"SAFFER, NANCY",School Support Team 7- Bronx,NULL,NULL,NULL,202,41
2020,07X049,X049,P.S. 049 Willis Avenue,320700010049,DOE,General Academic,Elementary,"PK,0K,01,02,03,04,05,06,SE","PK,0K,01,02,03,04,05",1965-07-01T00:00:00.000,Open,X049,383 EAST 139 STREET,NY,1005640,234542,-73.92273,40.810413,201,8,3900,2023020040,BX39,Mott Haven-Port Morris,Frank Hernandez,Principal,718-292-4623,718-292-4568,7,7,COMMUNITY SCHOOL DISTRICT 07,"ALVAREZ, RAFAEL",NYCDOE Borough Office - Bronx,"SAFFER, NANCY",School Support Team 6- Bronx,NULL,NULL,NULL,201,40
2020,12X050,X050,P.S. 050 Clara Barton,321200010050,DOE,General Academic,Elementary,"05,SE","PK,0K,01,02,03,04,05",1914-07-01T00:00:00.000,Closed,X050,1550 VYSE AVENUE,NY,1015521,243215,-73.886995,40.834188,203,17,15700,2029960010,BX75,Crotona Park East,Kimberly Nohavicka,PRINCIPAL,718-542-2650,718-589-7284,12,12,COMMUNITY SCHOOL DISTRICT 12,"ESPINAL PACHECO, RAFAELA",NULL,NULL,NULL,NULL,NULL,NULL,203,42
2020,10X051,X051,The Bronx STEM and Arts Academy,321000010051,DOE,General Academic,Elementary,"PK,0K,01,02,03,04,05","0K,01,02,03,04,05",1992-05-05T00:00:00.000,Open,X781,695 EAST 182ND STREET,NY,1015610,249277,-73.886997,40.850674,206,15,39100,2030840001,BX06,Belmont,Min Hong,Principal,718-733-0347,718-733-5142,10,10,COMMUNITY SCHOOL DISTRICT 10,"HULLA, MARIBEL",NYCDOE Borough Office - Bronx,"SAFFER, NANCY",School Support Team 3- Bronx,NULL,NULL,NULL,206,48
2020,09X053,X053,P.S. 053 Basheer Quisim,320900010053,DOE,General Academic,Elementary,"PK,0K,01,02,03,04,05,SE","PK,0K,01,02,03,04,05",1914-07-01T00:00:00.000,Open,X053,360 EAST 168 STREET,NY,1008628,242646,-73.911906,40.832648,204,16,17500,2024350075,BX14,East Concourse-Concourse Village,COLLIN WOLFE,Principal,718-681-7276,718-681-7298,9,9,COMMUNITY SCHOOL DISTRICT 09,"RODRIGUEZ-ROSARIO, LETICIA",NYCDOE Borough Office - Bronx,"SAFFER, NANCY",School Support Team 8- Bronx,NULL,NULL,NULL,204,44
2020,10X054,X054,P.S./I.S. 54,321000010054,DOE,General Academic,Elementary,"PK,0K,01,02,03,04,05,SE","PK,0K,01,02,03,04,05",1999-07-01T00:00:00.000,Open,X054,2703 WEBSTER AVENUE,NY,1015245,254394,-73.88794,40.864872,207,15,40502,2032780014,BX05,Bedford Park-Fordham North,Marybelle Ferreira,Principal,718-584-4203,718-584-4326,10,10,COMMUNITY SCHOOL DISTRICT 10,"HULLA, MARIBEL",NYCDOE Borough Office - Bronx,"SAFFER, NANCY",School Support Team 3- Bronx,NULL,NULL,NULL,207,52
2020,09X055,X055,P.S. 055 Benjamin Franklin,320900010055,DOE,General Academic,Elementary,"PK,0K,01,02,03,04,05,SE","PK,0K,01,02,03,04,05",1916-07-01T00:00:00.000,Open,X055,450 SAINT PAUL'S PLACE,NY,1010546,243845,-73.90497,40.835934,203,16,14702,2029020001,BX01,Claremont-Bathgate,LUIS TORRES,Principal,718-681-6227,718-681-6247,9,9,COMMUNITY SCHOOL DISTRICT 09,"RODRIGUEZ-ROSARIO, LETICIA",NYCDOE Borough Office - Bronx,"SAFFER, NANCY",School Support Team 8- Bronx,NULL,NULL,NULL,203,42
2020,10X056,X056,P.S. 056 Norwood Heights,321000010056,DOE,General Academic,Elementary,"0K,01,02,03,04,05,SE","0K,01,02,03,04,05",1915-07-01T00:00:00.000,Open,X056,341 EAST 207 STREET,NY,1018843,258264,-73.874912,40.875481,207,11,42902,2033510001,BX43,Norwood,M Oneill,Principal,718-920-1100,718-920-1105,10,10,COMMUNITY SCHOOL DISTRICT 10,"HULLA, MARIBEL",NYCDOE Borough Office - Bronx,"SAFFER, NANCY",School Support Team 3- Bronx,NULL,NULL,NULL,207,52
2020,12X057,X057,P.S. 057 Crescent,321200010057,DOE,General Academic,Elementary,"PK,0K,01,02,03,04,05,SE","PK,0K,01,02,03,04,05",1921-07-01T00:00:00.000,Open,X057,2111 CROTONA AVENUE,NY,1014963,248519,-73.888987,40.848748,206,15,37300,2030810026,BX17,East Tremont,Mary Blandino Sanche,Principal,718-367-9446,718-561-7972,12,12,COMMUNITY SCHOOL DISTRICT 12,"ROSADO, JACQUELINE",NYCDOE Borough Office - Bronx,"SAFFER, NANCY",School Support Team 5- Bronx,NULL,NULL,NULL,206,48
2020,09X058,X058,P.S. 058,320900010058,DOE,General Academic,Elementary,"PK,0K,01,02,03,04,05,SE","0K,01,02,03,04,05,06",1890-07-01 00:00:00.000,Open,X058,459 EAST 176 STREET,NY,1012242,247654,-73.898826,40.846383,206,15,39500,2029090032,BX01,Claremont-Bathgate,VELMA GUNN,Principal,718-583-6866,718-583-6895,9,9,COMMUNITY SCHOOL DISTRICT 09,"RODRIGUEZ-ROSARIO, LETICIA",NYCDOE Borough Office - Bronx,"SAFFER, NANCY",School Support Team 8- Bronx,NULL,NULL,NULL,206,48
2020,10X059,X059,P.S. 059 The Community School of Technology,321000010059,DOE,General Academic,Elementary,"PK,0K,01,02,03,04,05,SE","PK,0K,01,02,03,04,05",1921-07-01T00:00:00.000,Open,X059,2185 BATHGATE AVENUE,NY,1013674,250118,-73.893639,40.853141,206,15,39500,2030490037,BX01,Claremont-Bathgate,Sita Basu,Principal,718-584-4730,718-584-7518,10,10,COMMUNITY SCHOOL DISTRICT 10,"HULLA, MARIBEL",NYCDOE Borough Office - Bronx,"SAFFER, NANCY",School Support Team 4- Bronx,NULL,NULL,NULL,206,48
2020,08X060,X060,PS 060 George L Gallego,320800010060,DOE,General Academic,Elementary,NULL,"0K,01,02,03,04,05",1922-07-01T00:00:00.000,Closed,X060,888 REV J A POLITE AVE,NY,1012230,238119,0,0,202,17,8700,2026960085,BX33,Longwood,NULL,NULL,718-842-7550,718-842-8734,8,8,COMMUNITY SCHOOL DISTRICT 08,Dov Rokeach,NULL,NULL,NULL,NULL,NULL,NULL,202,41
2020,12X061,X061,P.S. 061 Francisco Oller,321200010061,DOE,General Academic,Elementary,"PK,0K,01,02,03,04,05,SE","PK,0K,01,02,03,04,05",1922-07-01T00:00:00.000,Open,X061,1550 CROTONA PARK EAST,NY,1013918,243930,-73.892784,40.836156,203,17,15300,2029390045,BX75,Crotona Park East,Marjorie Cutler Sanchez,Principal,718-542-7230,718-589-7361,12,12,COMMUNITY SCHOOL DISTRICT 12,"ROSADO, JACQUELINE",NYCDOE Borough Office - Bronx,"SAFFER, NANCY",School Support Team 5- Bronx,NULL,NULL,NULL,203,42
2020,08X062,X062,P.S. 062 Inocensio Casanova,320800010062,DOE,General Academic,Elementary,"PK,0K,01,02,03,04,05,SE","PK,0K,01,02,03,04,05",1922-07-01T00:00:00.000,Open,X062,660 FOX STREET,NY,1011886,235759,-73.900161,40.813736,202,8,8300,2026830065,BX33,Longwood,LISA MANFREDONIA,Principal,718-585-1617,718-292-6327,8,8,COMMUNITY SCHOOL DISTRICT 08,"TOBIA, ERIKA",NYCDOE Borough Office - Bronx,"SAFFER, NANCY",School Support Team 7- Bronx,NULL,NULL,NULL,202,41
2020,09X063,X063,P.S. 063 Author's Academy,320900010063,DOE,General Academic,Elementary,"PK,0K,01,02,03,04,05,SE","PK,0K,01,02,03,04,05",1924-07-01T00:00:00.000,Open,X063,1260 FRANKLIN AVENUE,NY,1011409,242023,-73.901859,40.83093,203,16,14900,2026150014,BX35,Morrisania-Melrose,REINALDO DIAZ LENS,Principal,718-589-3058,718-589-4917,9,9,COMMUNITY SCHOOL DISTRICT 09,"RODRIGUEZ-ROSARIO, LETICIA",NYCDOE Borough Office - Bronx,"SAFFER, NANCY",School Support Team 10- Bronx,NULL,NULL,NULL,203,42
2020,09X064,X064,P.S. 064 Pura Belpre,320900010064,DOE,General Academic,Elementary,"05,SE","0K,01,02,03,04,05",1924-07-01T00:00:00.000,Closed,X064,1425 WALTON AVENUE,NY,1007526,245469,-73.915879,40.8404,204,16,22300,2028430040,BX63,West Concourse,Barbara Headley,PRINCIPAL,718-681-8088,718-537-6015,9,9,COMMUNITY SCHOOL DISTRICT 09,"RODRIGUEZ-ROSARIO, LETICIA",NULL,NULL,NULL,NULL,NULL,NULL,204,44
2020,07X065,X065,P.S. 065 Mother Hale Academy,320700010065,DOE,General Academic,Elementary,"PK,0K,01,02,03,04,05,SE","PK,0K,01,02,03,04,05",1924-07-01T00:00:00.000,Open,X065,677 EAST 141 STREET,NY,1008457,233635,-73.912557,40.807916,201,8,3300,2025710001,BX39,Mott Haven-Port Morris,Jasmine Gonzalez,Principal,718-292-4628,718-292-4695,7,7,COMMUNITY SCHOOL DISTRICT 07,"ALVAREZ, RAFAEL",NYCDOE Borough Office - Bronx,"SAFFER, NANCY",School Support Team 6- Bronx,NULL,NULL,NULL,201,40
2020,12X066,X066,P.S. 066 School of Higher Expectations,321200010066,DOE,General Academic,Elementary,"PK,0K,01,02,03,04,05,SE","PK,0K,01,02,03,04,05",1924-07-01T00:00:00.000,Open,X066,1001 JENNINGS STREET,NY,1015648,242233,-73.88654,40.831493,203,17,15700,2030080001,BX75,Crotona Park East,Kevin Goodman,Principal,718-319-2820,718-589-7375,12,12,COMMUNITY SCHOOL DISTRICT 12,"ROSADO, JACQUELINE",NYCDOE Borough Office - Bronx,"SAFFER, NANCY",School Support Team 5- Bronx,NULL,NULL,NULL,203,42
2020,12X067,X067,P.S. 067 Mohegan School,321200010067,DOE,General Academic,Elementary,"PK,0K,01,02,03,04,05,SE","PK,0K,01,02,03,04,05",1925-07-01T00:00:00.000,Open,X067,2024 MOHEGAN AVENUE,NY,1016292,246711,-73.884192,40.843781,206,17,36300,2031230003,BX17,East Tremont,Jeffrey Santiago,Principal,718-823-4101,718-823-4105,12,12,COMMUNITY SCHOOL DISTRICT 12,"ROSADO, JACQUELINE",NYCDOE Borough Office - Bronx,"SAFFER, NANCY",School Support Team 5- Bronx,NULL,NULL,NULL,206,48
2020,11X068,X068,P.S. 068 Bronx,321100010068,DOE,General Academic,Elementary,"PK,0K,01,02,03,04,05,SE","PK,0K,01,02,03,04,05",1926-07-01T00:00:00.000,Open,X068,4011 MONTICELLO AVENUE,NY,1028797,264154,-73.83888,40.891603,212,12,42600,2049860081,BX62,Woodlawn-Wakefield,AIDIMARIS SOLER,Principal,718-324-2854,718-324-3852,11,11,COMMUNITY SCHOOL DISTRICT 11,"VAUGHAN, CRISTINE",NYCDOE Borough Office - Bronx,"SAFFER, NANCY",School Support Team 9- Bronx,NULL,NULL,NULL,212,47
2020,08X069,X069,P.S. 069 Journey Prep School,320800010069,DOE,General Academic,Elementary,"PK,0K,01,02,03,04,05,SE","PK,0K,01,02,03,04,05",1924-07-01T00:00:00.000,Open,X069,560 THIERIOT AVENUE,NY,1022874,236854,-73.86046,40.8167,209,18,1600,2035240020,BX09,Soundview-Castle Hill-Clason Point-Harding Park,Sheila Durant,Principal,718-378-4736,718-328-0925,8,8,COMMUNITY SCHOOL DISTRICT 08,"TOBIA, ERIKA",NYCDOE Borough Office - Bronx,"SAFFER, NANCY",School Support Team 7- Bronx,NULL,NULL,NULL,209,43
2020,09X070,X070,P.S. 070 Max Schoenfeld,320900010070,DOE,General Academic,Elementary,"PK,0K,01,02,03,04,05,SE","0K,01,02,03,04,05",1925-07-01T00:00:00.000,Open,X070,1691 WEEKS AVENUE,NY,1009685,246869,-73.90807,40.844236,204,15,22902,2027930028,BX41,Mount Hope,KERRY CASTELLANO,Principal,718-583-6000,718-583-6006,9,9,COMMUNITY SCHOOL DISTRICT 09,"RODRIGUEZ-ROSARIO, LETICIA",NYCDOE Borough Office - Bronx,"SAFFER, NANCY",School Support Team 8- Bronx,NULL,NULL,NULL,204,44
2020,08X071,X071,P.S. 071 Rose E. Scala,320800010071,DOE,General Academic,K-8,"0K,01,02,03,04,05,06,07,08,SE","PK,0K,01,02,03,04,05,06,07,08",1925-07-01T00:00:00.000,Open,X071,3040 ROBERTS AVENUE,NY,1031406,247318,-73.829562,40.845379,210,13,26602,2041710001,BX10,Pelham Bay-Country Club-City Island,Margaret Mirando,Principal,718-822-5351,718-239-3111,8,8,COMMUNITY SCHOOL DISTRICT 08,"TOBIA, ERIKA",NYCDOE Borough Office - Bronx,"SAFFER, NANCY",School Support Team 7- Bronx,NULL,NULL,NULL,210,45
2020,08X072,X072,P.S. 072 Dr. William Dorney,320800010072,DOE,General Academic,Elementary,"PK,0K,01,02,03,04,05,SE","PK,0K,01,02,03,04,05,SE",1925-07-01T00:00:00.000,Open,X072,2951 DEWEY AVENUE,NY,1034574,239257,-73.818172,40.823237,210,13,15800,2054400001,BX52,Schuylerville-Throgs Neck-Edgewater Park,MARGARITA COLON,Principal,718-822-5311,718-828-4459,8,8,COMMUNITY SCHOOL DISTRICT 08,"TOBIA, ERIKA",NYCDOE Borough Office - Bronx,"SAFFER, NANCY",School Support Team 7- Bronx,NULL,NULL,NULL,210,45
2020,09X073,X073,P.S. 073 Bronx,320900010073,DOE,General Academic,Elementary,"PK,0K,01,02,03,04,05,SE","PK,0K,01,02,03,04,05",1926-07-01T00:00:00.000,Open,X073,1020 ANDERSON AVENUE,NY,1004613,242628,-73.926415,40.832609,204,8,18900,2025040082,BX26,Highbridge,Vivian Bueno,I.A. Principal,718-681-6776,718-681-6749,9,9,COMMUNITY SCHOOL DISTRICT 09,"RODRIGUEZ-ROSARIO, LETICIA",NYCDOE Borough Office - Bronx,"SAFFER, NANCY",School Support Team 8- Bronx,NULL,NULL,NULL,204,44
2020,08X075,X075,P.S. 75 School of Research and Discovery,320800010075,DOE,General Academic,Elementary,"PK,0K,01,02,03,04,05,SE","PK,0K,01,02,03,04,05",1924-07-01T00:00:00.000,Open,X075,984 FAILE STREET,NY,1014986,238888,-73.888948,40.822314,202,17,11900,2027470001,BX27,Hunts Point,MARINES ARRIETA CRUZ,Principal,718-860-1630,718-860-4480,8,8,COMMUNITY SCHOOL DISTRICT 08,"TOBIA, ERIKA",NYCDOE Borough Office - Bronx,"SAFFER, NANCY",School Support Team 7- Bronx,NULL,NULL,NULL,202,41
2020,11X076,X076,P.S. 076 The Bennington School,321100010076,DOE,General Academic,Elementary,"0K,01,02,03,04,05,SE","0K,01,02,03,04,05",1932-07-01T00:00:00.000,Open,X076,900 ADEE AVENUE,NY,1022714,255930,-73.860928,40.869059,211,12,34200,2045520010,BX31,Allerton-Pelham Gardens,DARLENE TERON,Principal,718-882-8865,718-882-8870,11,11,COMMUNITY SCHOOL DISTRICT 11,"VAUGHAN, CRISTINE",NYCDOE Borough Office - Bronx,"SAFFER, NANCY",School Support Team 9- Bronx,NULL,NULL,NULL,211,49
2020,10X077,X077,Bedford Park Elementary School,321000010077,DOE,General Academic,Elementary,"PK,0K,01,02,03,04,05,SE","0K,01,02,03,04,05",2014-07-01T00:00:00.000,Open,X177,3177 WEBSTER AVENUE,NY,1018564,257153,-73.875375,40.872559,207,11,42500,2033530040,BX43,Norwood,CAROLYN HEREDIA,Principal,718-696-6400,718-696-6405,10,10,COMMUNITY SCHOOL DISTRICT 10,"HULLA, MARIBEL",NYCDOE Borough Office - Bronx,"SAFFER, NANCY",School Support Team 3- Bronx,NULL,NULL,NULL,207,52
2020,11X078,X078,P.S. 078 Anne Hutchinson,321100010078,DOE,General Academic,Elementary,"PK,0K,01,02,03,04,05,SE","0K,01,02,03,04,05",1924-07-01T00:00:00.000,Open,X078,1400 NEEDHAM AVENUE,NY,1025575,259365,-73.850563,40.878474,212,12,38600,2047190001,BX03,Eastchester-Edenwald-Baychester,CLAUDINA SKERRITT,Principal,718-652-1244,718-231-2756,11,11,COMMUNITY SCHOOL DISTRICT 11,"VAUGHAN, CRISTINE",NYCDOE Borough Office - Bronx,"SAFFER, NANCY",School Support Team 9- Bronx,NULL,NULL,NULL,212,47
2020,10X079,X079,P.S. 079 Creston,321000010079,DOE,General Academic,Elementary,"05,SE","0K,01,02,03,04,05,06",1925-07-01T00:00:00.000,Closed,X079,125 EAST 181 STREET,NY,1011045,250915,-73.903139,40.855337,205,14,23704,2031700001,BX40,Fordham South,Angelyn Donald,PRINCIPAL,718-584-4810,718-584-7481,10,10,COMMUNITY SCHOOL DISTRICT 10,"MENENDEZ, SONIA",NULL,NULL,NULL,NULL,NULL,NULL,205,46
2020,10X080,X080,J.H.S. 080 The Mosholu Parkway,321000010080,DOE,General Academic,Junior High-Intermediate-Middle,"06,07,08,SE","06,07,08",1925-07-01T00:00:00.000,Open,X080,149 EAST MOSHOLU PKWY N,NY,1017091,258749,-73.881245,40.876819,207,11,41900,2033360035,BX43,Norwood,Emmanuel Polanco,Principal,718-405-6300,718-405-6324,10,10,COMMUNITY SCHOOL DISTRICT 10,"HULLA, MARIBEL",NYCDOE Borough Office - Bronx,"SAFFER, NANCY",School Support Team 4- Bronx,NULL,NULL,NULL,207,52
2020,10X080,X080,J.H.S. 080 The Mosholu Parkway,321000010080,DOE,General Academic,Junior High-Intermediate-Middle,"06,07,08,SE","06,07,08",1925-07-01T00:00:00.000,Open,X080,149 EAST MOSHOLU PKWY N,NY,1017091,258749,-73.881245,40.876819,207,11,41900,2033360035,BX43,Norwood,Emmanuel Polanco,Principal,718-405-6300,718-405-6324,10,10,COMMUNITY SCHOOL DISTRICT 10,"HULLA, MARIBEL",NYCDOE Borough Office - Bronx,"SAFFER, NANCY",School Support Team 4- Bronx,NULL,NULL,NULL,207,52
2020,10X081,X081,P.S. 081 Robert J. Christen,321000010081,DOE,General Academic,Elementary,"0K,01,02,03,04,05,SE","0K,01,02,03,04,05",1926-07-01T00:00:00.000,Open,X081,5550 RIVERDALE AVENUE,NY,1010606,268380,-73.904657,40.903275,208,11,33700,2058501550,BX22,North Riverdale-Fieldston-Riverdale,Anna Kirrane,Principal,718-796-8965,718-796-7242,10,10,COMMUNITY SCHOOL DISTRICT 10,"HULLA, MARIBEL",NYCDOE Borough Office - Bronx,"SAFFER, NANCY",School Support Team 4- Bronx,NULL,NULL,NULL,208,50
2020,11X083,X083,P.S. 083 Donald Hertz,321100010083,DOE,General Academic,K-8,"0K,01,02,03,04,05,06,07,08,SE","0K,01,02,03,04,05,06,07,08",1925-07-01T00:00:00.000,Open,X083,950 RHINELANDER AVENUE,NY,1023323,248687,-73.858769,40.849176,211,13,24400,2041250001,BX37,Van Nest-Morris Park-Westchester Square,Brandon Muccino,Principal,718-863-1993,718-863-5525,11,11,COMMUNITY SCHOOL DISTRICT 11,"VAUGHAN, CRISTINE",NYCDOE Borough Office - Bronx,"SAFFER, NANCY",School Support Team 10- Bronx,NULL,NULL,NULL,211,49
2020,10X085,X085,P.S. 085 Great Expectations,321000010085,DOE,General Academic,Elementary,"PK,0K,01,02,03,04,05,SE","0K,01,02,03,04,05",1933-07-01T00:00:00.000,Open,X085,2400 MARION AVENUE,NY,1013383,252139,-73.894682,40.858689,205,15,38302,2030240021,BX40,Fordham South,SARA MEDINA,I.A. Principal,718-584-5275,718-584-7765,10,10,COMMUNITY SCHOOL DISTRICT 10,"HULLA, MARIBEL",NYCDOE Borough Office - Bronx,"SAFFER, NANCY",School Support Team 3- Bronx,NULL,NULL,NULL,205,46
2020,10X086,X086,P.S. 086 Kingsbridge Heights,321000010086,DOE,General Academic,Elementary,"PK,0K,01,02,03,04,05,06,SE","PK,0K,01,02,03,04,05,06",1928-07-01T00:00:00.000,Open,X086,2756 RESERVOIR AVENUE,NY,1012719,255917,-73.897066,40.869061,207,11,40900,2032470070,BX28,Van Cortlandt Village,Fiona Tyson,Principal,718-584-5585,718-584-7027,10,10,COMMUNITY SCHOOL DISTRICT 10,"HULLA, MARIBEL",NYCDOE Borough Office - Bronx,"SAFFER, NANCY",School Support Team 3- Bronx,NULL,NULL,NULL,207,52
2020,11X087,X087,P.S. 087 Bronx,321100010087,DOE,General Academic,Elementary,"0K,01,02,03,04,05,SE","0K,01,02,03,04,05",1931-07-01T00:00:00.000,Open,X087,1935 BUSSING AVENUE,NY,1026771,265658,-73.846198,40.895741,212,12,42800,2050180001,BX62,Woodlawn-Wakefield,DONNA ANAMAN,Principal,718-324-5188,718-325-1148,11,11,COMMUNITY SCHOOL DISTRICT 11,"VAUGHAN, CRISTINE",NYCDOE Borough Office - Bronx,"SAFFER, NANCY",School Support Team 9- Bronx,NULL,NULL,NULL,212,47
2020,09X088,X088,P.S. X088 - S. Silverstein Little Sparrow School,320900010088,DOE,General Academic,Early Childhood,"0K,01,02,03,SE","PK,0K,01,02,03",1924-07-01T00:00:00.000,Open,X088,1340 SHERIDAN AVENUE,NY,1008179,244238,-73.913523,40.837019,204,16,17902,2028300017,BX14,East Concourse-Concourse Village,MELINDA HYER,Principal,718-716-7369,718-681-6224,9,9,COMMUNITY SCHOOL DISTRICT 09,"RODRIGUEZ-ROSARIO, LETICIA",NYCDOE Borough Office - Bronx,"SAFFER, NANCY",School Support Team 8- Bronx,NULL,NULL,NULL,204,44
2020,11X089,X089,P.S. 089 Bronx,321100010089,DOE,General Academic,K-8,"PK,0K,01,02,03,04,05,06,07,08,SE","PK,0K,01,02,03,04,05,06,07,08",1927-07-01T00:00:00.000,Open,X089,980 MACE AVENUE,NY,1023181,253534,-73.859254,40.862481,211,13,32400,2044440016,BX07,Bronxdale,RALPH MARTINEZ,Principal,718-653-0835,718-231-2863,11,11,COMMUNITY SCHOOL DISTRICT 11,"VAUGHAN, CRISTINE",NYCDOE Borough Office - Bronx,"SAFFER, NANCY",School Support Team 10- Bronx,NULL,NULL,NULL,211,49
2020,09X090,X090,P.S. 090 George Meany,320900010090,DOE,General Academic,Elementary,4,"0K,01,02,03,04",1928-07-01T00:00:00.000,Closed,X090,1116 SHERIDAN AVENUE,NY,1007073,242362,-73.917526,40.831873,204,16,18102,2024560100,BX14,East Concourse-Concourse Village,JOAN KONG,PRINCIPAL,718-681-7023,718-681-6966,9,9,COMMUNITY SCHOOL DISTRICT 09,"ESPOSITO, DOLORES",NULL,NULL,NULL,NULL,NULL,NULL,204,44
2020,10X091,X091,P.S. 091 Bronx,321000010091,DOE,General Academic,Elementary,"0K,01,02,03,04,05,SE","0K,01,02,03,04,05",1929-07-01T00:00:00.000,Open,X091,2200 AQUEDUCT AVENUE,NY,1009839,251988,-73.907494,40.858286,205,14,25100,2032080001,BX36,University Heights-Morris Heights,Meridith Struhl Nasjlett,Principal,718-584-5805,718-584-7495,10,10,COMMUNITY SCHOOL DISTRICT 10,"HULLA, MARIBEL",NYCDOE Borough Office - Bronx,"SAFFER, NANCY",School Support Team 3- Bronx,NULL,NULL,NULL,205,46
2020,10X091,X091,P.S. 091 Bronx,321000010091,DOE,General Academic,Elementary,"0K,01,02,03,04,05,SE","0K,01,02,03,04,05",1929-07-01T00:00:00.000,Open,X091,2200 AQUEDUCT AVENUE,NY,1009839,251988,-73.907494,40.858286,205,14,25100,2032080001,BX36,University Heights-Morris Heights,Meridith Struhl Nasjlett,Principal,718-584-5805,718-584-7495,10,10,COMMUNITY SCHOOL DISTRICT 10,"HULLA, MARIBEL",NYCDOE Borough Office - Bronx,"SAFFER, NANCY",School Support Team 3- Bronx,NULL,NULL,NULL,205,46
2020,12X092,X092,P.S. 092 Bronx,321200010092,DOE,General Academic,Elementary,"PK,0K,01,02,03,04,05,SE","PK,0K,01,02,03,04,05",1930-07-01T00:00:00.000,Closed,X092,700 EAST 179 STREET,NY,1014794,247592,-73.889602,40.846205,206,17,37100,2030920014,BX17,East Tremont,Yasmin Lugo,PRINCIPAL,718-731-7900,718-294-1561,12,12,COMMUNITY SCHOOL DISTRICT 12,"ESPINAL PACHECO, RAFAELA",NULL,NULL,NULL,NULL,NULL,NULL,206,48
2020,08X093,X093,P.S. 093 Albert G. Oliver,320800010093,DOE,General Academic,Elementary,"PK,0K,01,02,03,04,05,SE","PK,0K,01,02,03,04,05",1930-07-01T00:00:00.000,Open,X093,1535 STORY AVENUE,NY,1018217,238968,-73.877274,40.822522,209,17,2800,2036520001,BX09,Soundview-Castle Hill-Clason Point-Harding Park,Jonathan Kaplan,Principal,718-430-1700,718-430-1705,8,8,COMMUNITY SCHOOL DISTRICT 08,"TOBIA, ERIKA",NYCDOE Borough Office - Bronx,"SAFFER, NANCY",School Support Team 7- Bronx,NULL,NULL,NULL,209,43
2020,10X094,X094,P.S. 094 Kings College School,321000010094,DOE,General Academic,Elementary,"0K,01,02,03,04,05,SE","0K,01,02,03,04,05",1929-07-01T00:00:00.000,Open,X094,3530 KINGS COLLEGE PLACE,NY,1018742,260151,-73.875268,40.880661,207,11,43100,2033560036,BX43,Norwood,DIANE DAPROCIDA-SESIN,Principal,718-405-6345,718-405-6358,10,10,COMMUNITY SCHOOL DISTRICT 10,"HULLA, MARIBEL",NYCDOE Borough Office - Bronx,"SAFFER, NANCY",School Support Team 3- Bronx,NULL,NULL,NULL,207,52
2020,10X095,X095,P.S. 095 Sheila Mencher,321000010095,DOE,General Academic,K-8,"0K,01,02,03,04,05,06,07,08,SE","PK,0K,01,02,03,04,05,06,07,08",1933-07-01T00:00:00.000,Open,X095,3961 HILLMAN AVENUE,NY,1014207,261015,-73.891664,40.883049,208,11,28100,2032520182,BX28,Van Cortlandt Village,SERGE DAVIS,Principal,718-796-9200,718-796-7330,10,10,COMMUNITY SCHOOL DISTRICT 10,"HULLA, MARIBEL",NYCDOE Borough Office - Bronx,"SAFFER, NANCY",School Support Team 4- Bronx,NULL,NULL,NULL,208,50
2020,11X096,X096,P.S. 096 Richard Rodgers,321100010096,DOE,General Academic,Elementary,"0K,01,02,03,04,05,SE","0K,01,02,03,04,05",1930-07-01T00:00:00.000,Open,X096,2385 OLINVILLE AVENUE,NY,1020490,252892,-73.868986,40.86073,211,15,33201,2043410013,BX07,Bronxdale,JOAN VETERE,Acting Principal,718-652-4959,718-231-2889,11,11,COMMUNITY SCHOOL DISTRICT 11,"VAUGHAN, CRISTINE",NYCDOE Borough Office - Bronx,"SAFFER, NANCY",School Support Team 9- Bronx,NULL,NULL,NULL,211,49
2020,11X096,X096,P.S. 096 Richard Rodgers,321100010096,DOE,General Academic,Elementary,"0K,01,02,03,04,05,SE","0K,01,02,03,04,05",1930-07-01T00:00:00.000,Open,X096,2385 OLINVILLE AVENUE,NY,1020490,252892,-73.868986,40.86073,211,15,33201,2043410013,BX07,Bronxdale,JOAN VETERE,Acting Principal,718-652-4959,718-231-2889,11,11,COMMUNITY SCHOOL DISTRICT 11,"VAUGHAN, CRISTINE",NYCDOE Borough Office - Bronx,"SAFFER, NANCY",School Support Team 9- Bronx,NULL,NULL,NULL,211,49
2020,11X097,X097,P.S. 097 Bronx,321100010097,DOE,General Academic,Elementary,"PK,0K,01,02,03,04,05,SE","PK,0K,01,02,03,04,05",1931-07-01T00:00:00.000,Open,X097,1375 MACE AVENUE,NY,1026634,253920,-73.846768,40.863524,211,13,31400,2044740001,BX31,Allerton-Pelham Gardens,KATHELEEN BORNKAMP,Principal,718-655-4446,718-655-6063,11,11,COMMUNITY SCHOOL DISTRICT 11,"VAUGHAN, CRISTINE",NYCDOE Borough Office - Bronx,"SAFFER, NANCY",School Support Team 10- Bronx,NULL,NULL,NULL,211,49
2020,12X098,X098,J.H.S. 098 Herman Ridder,321200010098,DOE,General Academic,Junior High-Intermediate-Middle,"06,07,08,SE","06,07,08",1931-07-01T00:00:00.000,Open,X098,1619 BOSTON ROAD,NY,1014525,243963,-73.890591,40.836245,203,17,15500,2029390093,BX75,Crotona Park East,RAJENDRA JIMENEZ JAILAL,Acting Principal,718-589-8200,718-589-8179,12,12,COMMUNITY SCHOOL DISTRICT 12,"ROSADO, JACQUELINE",NYCDOE Borough Office - Bronx,"SAFFER, NANCY",School Support Team 5- Bronx,NULL,NULL,NULL,203,42
2020,08X100,X100,P.S. 100 Isaac Clason,320800010100,DOE,General Academic,Elementary,"PK,0K,01,02,03,04,05,SE","PK,0K,01,02,03,04,05",1961-07-01T00:00:00.000,Open,X100,800 TAYLOR AVENUE,NY,1022234,238985,-73.86276,40.822552,209,18,4200,2036410001,BX09,Soundview-Castle Hill-Clason Point-Harding Park,ARIANA ARBOLINO,Principal,718-842-1461,718-328-5520,8,8,COMMUNITY SCHOOL DISTRICT 08,"TOBIA, ERIKA",NYCDOE Borough Office - Bronx,"SAFFER, NANCY",School Support Team 7- Bronx,NULL,NULL,NULL,209,43
2020,08X101,X101,M.S. X101 Edward R. Byrne,320800010101,DOE,General Academic,Junior High-Intermediate-Middle,"06,07,08,SE","06,07,08",1957-07-01T00:00:00.000,Open,X101,2750 LAFAYETTE AVENUE,NY,1031516,240651,-73.829211,40.82708,210,13,15200,2055470001,BX52,Schuylerville-Throgs Neck-Edgewater Park,Jared Rosoff,Principal,718-829-6372,718-829-6594,8,8,COMMUNITY SCHOOL DISTRICT 08,"TOBIA, ERIKA",NYCDOE Borough Office - Bronx,"SAFFER, NANCY",School Support Team 7- Bronx,NULL,NULL,NULL,210,45
2020,12X102,X102,P.S. 102 Joseph O. Loretan,321200010102,DOE,General Academic,Elementary,"05,SE","PK,0K,01,02,03,04,05",1931-07-01T00:00:00.000,Closed,X102,1827 ARCHER STREET,NY,1021318,244667,-73.866038,40.838151,209,18,21601,2039210030,BX08,West Farms-Bronx River,TANYUA TREZEVANTTE,PRINCIPAL,718-792-4003,718-409-2626,12,12,COMMUNITY SCHOOL DISTRICT 12,"RODRIGUEZ, MYRNA",NULL,NULL,NULL,NULL,NULL,NULL,209,43
2020,11X103,X103,P.S. 103 Hector Fontanez,321100010103,DOE,General Academic,Elementary,"PK,0K,01,02,03,04,05,SE","0K,01,02,03,04,05",1932-07-01T00:00:00.000,Open,X103,4125 CARPENTER AVENUE,NY,1022421,264360,-73.86194,40.892198,212,12,42000,2048230001,BX44,Williamsbridge-Olinville,Farid Reyes,Principal,718-655-0261,718-654-7930,11,11,COMMUNITY SCHOOL DISTRICT 11,"VAUGHAN, CRISTINE",NYCDOE Borough Office - Bronx,"SAFFER, NANCY",School Support Team 9- Bronx,NULL,NULL,NULL,212,47
2020,11X105,X105,P.S. 105 Sen Abraham Bernstein,321100010105,DOE,General Academic,Elementary,"PK,0K,01,02,03,04,05,SE","0K,01,02,03,04,05",1930-07-01T00:00:00.000,Open,X105,725 BRADY AVENUE,NY,1021247,250104,-73.866264,40.853075,211,13,22404,2042880001,BX49,Pelham Parkway,CHRISTOPHE EUSTACE,Principal,718-824-7350,718-828-4531,11,11,COMMUNITY SCHOOL DISTRICT 11,"VAUGHAN, CRISTINE",NYCDOE Borough Office - Bronx,"SAFFER, NANCY",School Support Team 10- Bronx,NULL,NULL,NULL,211,49
2020,11X106,X106,P.S. 106 Parkchester,321100010106,DOE,General Academic,Elementary,"PK,0K,01,02,03,04,05,SE","PK,0K,01,02,03,04,05",1932-07-01T00:00:00.000,Open,X106,1514 OLMSTEAD AVENUE,NY,1024422,244243,-73.854823,40.836974,209,18,22200,2039460007,BX46,Parkchester,EUGENIA MONTALVO,Principal,718-892-1006,718-823-8008,11,11,COMMUNITY SCHOOL DISTRICT 11,"VAUGHAN, CRISTINE",NYCDOE Borough Office - Bronx,"SAFFER, NANCY",School Support Team 9- Bronx,NULL,NULL,NULL,209,43
2020,08X107,X107,P.S. 107,320800010107,DOE,General Academic,Elementary,"PK,0K,01,02,03,04,05,SE","PK,0K,01,02,03,04,05",1937-07-01T00:00:00.000,Open,X107,1695 SEWARD AVENUE,NY,1020582,237769,-73.868735,40.819221,209,18,2000,2035910050,BX09,Soundview-Castle Hill-Clason Point-Harding Park,Katherine Hamm,Principal,718-860-8760,718-328-5799,8,8,COMMUNITY SCHOOL DISTRICT 08,"TOBIA, ERIKA",NYCDOE Borough Office - Bronx,"SAFFER, NANCY",School Support Team 7- Bronx,NULL,NULL,NULL,209,43
2020,11X108,X108,P.S. 108 Philip J. Abinanti,321100010108,DOE,General Academic,Elementary,"PK,0K,01,02,03,04,05,SE","0K,01,02,03,04,05",1938-07-01T00:00:00.000,Open,X108,1166 NEILL AVENUE,NY,1024957,250593,-73.8532,40.8547,211,13,28800,2042750001,BX49,Pelham Parkway,CHARLES SPERRAZZA,Principal,718-863-9829,718-828-1712,11,11,COMMUNITY SCHOOL DISTRICT 11,"VAUGHAN, CRISTINE",NYCDOE Borough Office - Bronx,"SAFFER, NANCY",School Support Team 10- Bronx,NULL,NULL,NULL,211,49
2020,09X109,X109,P.S. 109 Sedgwick,320900010109,DOE,General Academic,Elementary,"PK,0K,01,02,03,04,05,SE","PK,0K,01,02,03,04,05",1953-07-01T00:00:00.000,Open,X109,1771 POPHAM AVENUE,NY,1006661,249571,-73.918991,40.851661,205,14,20502,2028770393,BX36,University Heights-Morris Heights,Josette Claudio,Principal,718-583-8878,718-583-7618,9,9,COMMUNITY SCHOOL DISTRICT 09,"RODRIGUEZ-ROSARIO, LETICIA",NYCDOE Borough Office - Bronx,"SAFFER, NANCY",School Support Team 8- Bronx,NULL,NULL,NULL,205,46
2020,09X110,X110,P.S. 110 Theodore Schoenfeld,320900010110,DOE,General Academic,Elementary,"PK,0K,01,02,03,04,05,SE","PK,0K,01,02,03,04,05",1964-07-01T00:00:00.000,Open,X110,580 CROTONA PARK SOUTH,NY,1011741,243313,-73.900654,40.83447,203,16,14900,2029320001,BX35,Morrisania-Melrose,MARISOL FEIJOO,Acting Principal,718-861-0759,718-861-2750,9,9,COMMUNITY SCHOOL DISTRICT 09,"RODRIGUEZ-ROSARIO, LETICIA",NYCDOE Borough Office - Bronx,"SAFFER, NANCY",School Support Team 8- Bronx,NULL,NULL,NULL,203,42
2020,11X111,X111,P.S. 111 Seton Falls,321100010111,DOE,General Academic,Elementary,"PK,0K,01,02,03,04,05,SE","PK,0K,01,02,03,04,05",1963-07-01T00:00:00.000,Open,X111,3740 BAYCHESTER AVENUE,NY,1028689,261519,-73.839288,40.884371,212,12,48400,2049160001,BX03,Eastchester-Edenwald-Baychester,Celina Gutierrez,Principal,718-881-2418,718-405-5927,11,11,COMMUNITY SCHOOL DISTRICT 11,"VAUGHAN, CRISTINE",NYCDOE Borough Office - Bronx,"SAFFER, NANCY",School Support Team 9- Bronx,NULL,NULL,NULL,212,47
2020,11X112,X112,P.S. 112 Bronxwood,321100010112,DOE,General Academic,Elementary,"PK,0K,01,02,03,04,05,SE","PK,0K,01,02,03,04,05",1953-07-01T00:00:00.000,Open,X112,1925 SCHIEFFELIN AVENUE,NY,1027392,261724,-73.843977,40.88494,212,12,45800,2049050500,BX03,Eastchester-Edenwald-Baychester,ANDREA TUCCI,Principal,718-654-6377,718-654-7931,11,11,COMMUNITY SCHOOL DISTRICT 11,"VAUGHAN, CRISTINE",NYCDOE Borough Office - Bronx,"SAFFER, NANCY",School Support Team 9- Bronx,NULL,NULL,NULL,212,47
2020,11X113,X113,JHS 113 Richard R. Green,321100010113,DOE,General Academic,Junior High-Intermediate-Middle,NULL,"06,07,08",1937-07-01T00:00:00.000,Closed,X113,3710 BARNES AVENUE,NY,1022714,260234,-73.8609,40.8809,212,12,39000,2046750020,BX44,Williamsbridge-Olinville,Angela Green,Principal,718-653-2130,718-547-5377,11,11,COMMUNITY SCHOOL DISTRICT 11,Elizabeth White,NULL,NULL,NULL,NULL,NULL,NULL,212,47
2020,09X114,X114,P.S. X114 - Luis Llorens Torres Schools,320900010114,DOE,General Academic,Elementary,"PK,0K,01,02,03,04,05,SE","0K,01,02,03,04",1941-07-01T00:00:00.000,Open,X114,1155 CROMWELL AVENUE,NY,1005475,243492,-73.923297,40.834979,204,16,6300,2024950100,BX63,West Concourse,OLIVIA FRANCIS WEBBER,Principal,718-681-7507,718-681-7519,9,9,COMMUNITY SCHOOL DISTRICT 09,"RODRIGUEZ-ROSARIO, LETICIA",NYCDOE Borough Office - Bronx,"SAFFER, NANCY",School Support Team 8- Bronx,NULL,NULL,NULL,204,44
2020,09X117,X117,I.S. 117 Joseph H. Wade,320900010117,DOE,General Academic,Junior High-Intermediate-Middle,"06,07,08,SE","06,07,08",1938-07-01T00:00:00.000,Open,X117,1865 MORRIS AVENUE,NY,1009420,248441,-73.909022,40.848552,205,14,23301,2028270001,BX41,Mount Hope,DELISE JONES,Principal,718-583-7750,718-583-7658,9,9,COMMUNITY SCHOOL DISTRICT 09,"RODRIGUEZ-ROSARIO, LETICIA",NYCDOE Borough Office - Bronx,"SAFFER, NANCY",School Support Team 8- Bronx,NULL,NULL,NULL,205,46
2020,10X118,X118,J.H.S. 118 William W. Niles,321000010118,DOE,General Academic,Junior High-Intermediate-Middle,"06,07,08,SE","06,07,08",1939-07-01T00:00:00.000,Open,X118,577 EAST 179 STREET,NY,1013996,248501,-73.892482,40.848702,206,15,37504,2030690001,BX17,East Tremont,GIULIA COX,Principal,718-584-2330,718-584-7763,10,10,COMMUNITY SCHOOL DISTRICT 10,"HULLA, MARIBEL",NYCDOE Borough Office - Bronx,"SAFFER, NANCY",School Support Team 3- Bronx,NULL,NULL,NULL,206,48
2020,08X119,X119,The Dr. Emmett W. Bassett School,320800010119,DOE,General Academic,Elementary,"PK,0K,01,02,03,04,05,SE","PK,0K,01,02,03,04,05",1939-07-01T00:00:00.000,Open,X119,1075 PUGSLEY AVENUE,NY,1023716,241145,-73.857392,40.828474,209,18,4001,2037890021,BX55,Soundview-Bruckner,Kimberly Nohavicka,I.A. Principal,718-822-5198,718-239-3112,8,8,COMMUNITY SCHOOL DISTRICT 08,"TOBIA, ERIKA",NYCDOE Borough Office - Bronx,"SAFFER, NANCY",School Support Team 7- Bronx,NULL,NULL,NULL,209,43
2020,11X121,X121,P.S. 121 Throop,321100010121,DOE,General Academic,Elementary,"PK,0K,01,02,03,04,05,SE","PK,0K,01,02,03,04,05",1953-07-01T00:00:00.000,Open,X121,2750 THROOP AVENUE,NY,1025597,254993,-73.85051,40.866474,211,13,34800,2045260001,BX31,Allerton-Pelham Gardens,Jared Kreiner,I.A. Principal,718-654-2055,718-519-2613,11,11,COMMUNITY SCHOOL DISTRICT 11,"VAUGHAN, CRISTINE",NYCDOE Borough Office - Bronx,"SAFFER, NANCY",School Support Team 10- Bronx,NULL,NULL,NULL,211,49
2020,11X121,X121,P.S. 121 Throop,321100010121,DOE,General Academic,Elementary,"PK,0K,01,02,03,04,05,SE","PK,0K,01,02,03,04,05",1953-07-01T00:00:00.000,Open,X121,2750 THROOP AVENUE,NY,1025597,254993,-73.85051,40.866474,211,13,34800,2045260001,BX31,Allerton-Pelham Gardens,Jared Kreiner,I.A. Principal,718-654-2055,718-519-2613,11,11,COMMUNITY SCHOOL DISTRICT 11,"VAUGHAN, CRISTINE",NYCDOE Borough Office - Bronx,"SAFFER, NANCY",School Support Team 10- Bronx,NULL,NULL,NULL,211,49
2020,08X123,X123,J.H.S. 123 James M. Kieran,320800010123,DOE,General Academic,Junior High-Intermediate-Middle,"06,07,08,SE","06,07,08",1953-07-01T00:00:00.000,Open,X123,1025 MORRISON AVENUE,NY,1019077,239868,-73.874162,40.824989,209,18,4800,2037180001,BX55,Soundview-Bruckner,RICHARD HALLENBECK JR,Principal,718-328-2105,718-328-8561,8,8,COMMUNITY SCHOOL DISTRICT 08,"TOBIA, ERIKA",NYCDOE Borough Office - Bronx,"SAFFER, NANCY",School Support Team 7- Bronx,NULL,NULL,NULL,209,43
2020,08X125,X125,J.H.S. 125 Henry Hudson,320800010125,DOE,General Academic,Junior High-Intermediate-Middle,"06,07,08,SE","06,07,08",1952-07-01T00:00:00.000,Closed,X125,1111 PUGSLEY AVENUE,NY,1023580,241392,-73.857882,40.829153,209,18,4001,2037900040,BX55,Soundview-Bruckner,Michael Collins,PRINCIPAL,718-822-5186,718-239-3121,8,8,COMMUNITY SCHOOL DISTRICT 08,"AMES, KAREN",NULL,NULL,NULL,NULL,NULL,NULL,209,43
2020,09X126,X126,P.S. 126 Dr Marjorie H Dunbar,320900010126,DOE,General Academic,Elementary,"PK,0K,01,02,03,04,05,SE","PK,0K,01,02,03,04,05,06",1971-07-01T00:00:00.000,Open,X126,175 WEST 166 STREET,NY,1004118,243814,-73.9282,40.835866,204,16,19900,2025260083,BX26,Highbridge,PRINCESS KENT,I.A. Principal,718-681-6120,718-681-6131,9,9,COMMUNITY SCHOOL DISTRICT 09,"RODRIGUEZ-ROSARIO, LETICIA",NYCDOE Borough Office - Bronx,"SAFFER, NANCY",School Support Team 8- Bronx,NULL,NULL,NULL,204,44
2020,11X127,X127,J.H.S. 127 The Castle Hill,321100010127,DOE,General Academic,Junior High-Intermediate-Middle,"06,07,08,SE","06,07,08",1953-07-01T00:00:00.000,Open,X127,1560 PURDY STREET,NY,1024869,244894,-73.853203,40.838759,209,18,22200,2039480055,BX46,Parkchester,HARRY SHERMAN,Principal,718-892-8600,718-892-8300,11,11,COMMUNITY SCHOOL DISTRICT 11,"VAUGHAN, CRISTINE",NYCDOE Borough Office - Bronx,"SAFFER, NANCY",School Support Team 9- Bronx,NULL,NULL,NULL,209,43
2020,09X128,X128,Mott Hall III,320900010128,DOE,General Academic,Junior High-Intermediate-Middle,"06,07,08,SE","06,07,08",2001-07-01T00:00:00.000,Open,X110,580 CROTONA PARK SOUTH,NY,1011741,243313,-73.900654,40.83447,203,16,14900,2029320001,BX35,Morrisania-Melrose,JORISIS STUPART,Principal,718-842-6138,718-842-6348,9,9,COMMUNITY SCHOOL DISTRICT 09,"RODRIGUEZ-ROSARIO, LETICIA",NYCDOE Borough Office - Bronx,"SAFFER, NANCY",School Support Team 8- Bronx,NULL,NULL,NULL,203,42
2020,12X129,X129,M.S. 129 Academy for Independent Learning and Lead,321200010129,DOE,General Academic,Junior High-Intermediate-Middle,"06,07,08,SE","06,07,08",1971-07-01T00:00:00.000,Open,X129,2055 MAPES AVENUE,NY,1015591,247565,-73.886721,40.846128,206,15,37100,2031090001,BX17,East Tremont,Jason Reyes,Principal,718-933-5976,718-933-8132,12,12,COMMUNITY SCHOOL DISTRICT 12,"ROSADO, JACQUELINE",NYCDOE Borough Office - Bronx,"SAFFER, NANCY",School Support Team 5- Bronx,NULL,NULL,NULL,206,48
2020,08X130,X130,P.S. 130 Abram Stevens Hewitt,320800010130,DOE,General Academic,Elementary,"PK,0K,01,02,03,04,05,SE","PK,0K,01,02,03,04,05",1956-07-01T00:00:00.000,Open,X130,750 PROSPECT AVENUE,NY,1011456,237218,-73.901709,40.817742,202,17,8500,2026880001,BX33,Longwood,LOURDES VELAZQUEZ,Principal,718-665-0962,718-292-0417,8,8,COMMUNITY SCHOOL DISTRICT 08,"TOBIA, ERIKA",NYCDOE Borough Office - Bronx,"SAFFER, NANCY",School Support Team 7- Bronx,NULL,NULL,NULL,202,41
2020,08X131,X131,J.H.S. 131 Albert Einstein,320800010131,DOE,General Academic,Junior High-Intermediate-Middle,"06,07,08,SE","06,07,08",1966-07-01T00:00:00.000,Open,X131,885 BOLTON AVENUE,NY,1022998,239122,-73.859998,40.822925,209,18,4200,2036440001,BX09,Soundview-Castle Hill-Clason Point-Harding Park,Monique Mason,Principal,718-991-7490,718-328-6705,8,8,COMMUNITY SCHOOL DISTRICT 08,"TOBIA, ERIKA",NYCDOE Borough Office - Bronx,"SAFFER, NANCY",School Support Team 7- Bronx,NULL,NULL,NULL,209,43
2020,09X132,X132,P.S. 132 Garret A. Morgan,320900010132,DOE,General Academic,Elementary,"PK,0K,01,02,03,04,05,SE","PK,0K,01,02,03,04,05",1960-07-01T00:00:00.000,Open,X132,1245 WASHINGTON AVENUE,NY,1009949,242475,-73.907133,40.832175,203,16,14500,2023900001,BX01,Claremont-Bathgate,ANISSA REILLY,Principal,718-681-6455,718-681-6466,9,9,COMMUNITY SCHOOL DISTRICT 09,"RODRIGUEZ-ROSARIO, LETICIA",NYCDOE Borough Office - Bronx,"SAFFER, NANCY",School Support Team 8- Bronx,NULL,NULL,NULL,203,42
2020,12X134,X134,P.S. 134 George F. Bristow,321200010134,DOE,General Academic,Elementary,"PK,0K,01,02,03,04,05,SE","PK,0K,01,02,03,04,05",1965-07-01T00:00:00.000,Open,X134,1330 BRISTOW STREET,NY,1013517,242274,-73.894241,40.831613,203,17,15300,2029650082,BX75,Crotona Park East,MARTIN ALVARADO,Principal,718-328-3351,718-589-7581,12,12,COMMUNITY SCHOOL DISTRICT 12,"ROSADO, JACQUELINE",NYCDOE Borough Office - Bronx,"SAFFER, NANCY",School Support Team 5- Bronx,NULL,NULL,NULL,203,42
2020,08X138,X138,P.S. 138 Samuel Randall,320800010138,DOE,General Academic,Elementary,"PK,0K,01,02,03,04,05,SE","PK,0K,01,02,03,04,05",1958-07-01T00:00:00.000,Open,X138,2060 LAFAYETTE AVENUE,NY,1024892,238893,-73.853157,40.822288,209,18,7400,2036090016,BX09,Soundview-Castle Hill-Clason Point-Harding Park,Jeanna Dickerson,Principal,718-822-5325,718-239-3114,8,8,COMMUNITY SCHOOL DISTRICT 08,"TOBIA, ERIKA",NYCDOE Borough Office - Bronx,"SAFFER, NANCY",School Support Team 7- Bronx,NULL,NULL,NULL,209,43
2020,08X140,X140,P.S. X140 The Eagle School,320800010140,DOE,General Academic,Elementary,"PK,0K,01,02,03,04,05,SE","PK,0K,01,02,03,04,05",1957-07-01T00:00:00.000,Open,X140,916 EAGLE AVENUE,NY,1009854,239248,-73.907489,40.823318,203,17,18500,2026270009,BX35,Morrisania-Melrose,PAUL CANNON,Principal,718-585-1205,718-292-1349,8,8,COMMUNITY SCHOOL DISTRICT 08,"TOBIA, ERIKA",NYCDOE Borough Office - Bronx,"SAFFER, NANCY",School Support Team 7- Bronx,NULL,NULL,NULL,203,42
2020,10X141,X141,Riverdale / Kingsbridge Academy (Middle School / H,321000011141,DOE,General Academic,Secondary School,"06,07,08,09,10,11,12,SE","06,07,08,09,10,11,12",1957-07-01T00:00:00.000,Open,X141,660 WEST 237 STREET,NY,1007990,262596,-73.914141,40.887407,208,11,30900,2059180376,BX22,North Riverdale-Fieldston-Riverdale,LORI OMARA,Principal,718-796-8516,718-796-8657,10,10,COMMUNITY SCHOOL DISTRICT 10,"HULLA, MARIBEL",NYCDOE Borough Office - Bronx,"SAFFER, NANCY",School Support Team 4- Bronx,NULL,NULL,NULL,208,50
2020,11X142,X142,MS 142 John Philip Sousa,321100010142,DOE,General Academic,Junior High-Intermediate-Middle,"07,08,SE","06,07,08",1958-07-01T00:00:00.000,Closed,X142,3750 BAYCHESTER AVENUE,NY,1028579,262113,-73.839682,40.886002,212,12,48400,2049350001,BX03,Eastchester-Edenwald-Baychester,Louisa Palmer,I.A. PRINCIPAL,718-231-0100,718-231-3046,11,11,COMMUNITY SCHOOL DISTRICT 11,"LOPEZ, MARIA",NULL,NULL,NULL,NULL,NULL,NULL,212,47
2020,10X143,X143,JHS 143 John Peter Tetard,321000010143,DOE,General Academic,Junior High-Intermediate-Middle,"09,SE","06,07,08",1957-07-01T00:00:00.000,Closed,X143,120 WEST 231 STREET,NY,1011601,258411,-73.9011,40.8759,208,14,27300,2032530141,BX28,Van Cortlandt Village,Frank Fasolino,Principal,718-796-8170,718-796-7051,10,10,COMMUNITY SCHOOL DISTRICT 10,Sonia Menendez,NULL,NULL,NULL,NULL,NULL,NULL,208,50
2020,11X144,X144,J.H.S. 144 Michelangelo,321100010144,DOE,General Academic,Junior High-Intermediate-Middle,"06,07,08,SE","06,07,08",1968-07-01T00:00:00.000,Open,X144,2545 GUNTHER AVENUE,NY,1029467,254041,-73.836525,40.863842,211,13,31000,2044930001,BX31,Allerton-Pelham Gardens,Ellen Barrett,Principal,718-794-9749,718-794-9755,11,11,COMMUNITY SCHOOL DISTRICT 11,"VAUGHAN, CRISTINE",NYCDOE Borough Office - Bronx,"SAFFER, NANCY",School Support Team 9- Bronx,NULL,NULL,NULL,211,49
2020,09X145,X145,J.H.S. 145 Arturo Toscanini,320900010145,DOE,General Academic,Junior High-Intermediate-Middle,"06,07,08,SE","05,06,07,08",1965-07-01T00:00:00.000,Closed,X145,1000 TELLER AVENUE,NY,1008032,240747,-73.914067,40.827438,204,16,17300,2024240001,BX14,East Concourse-Concourse Village,Lauren Wilkins,PRINCIPAL,718-681-7219,718-681-6913,9,9,COMMUNITY SCHOOL DISTRICT 09,"RODRIGUEZ-ROSARIO, LETICIA",NULL,NULL,NULL,NULL,NULL,NULL,204,44
2020,08X146,X146,P.S. 146 Edward Collins,320800010146,DOE,General Academic,Elementary,"PK,0K,01,02,03,04,05,SE","PK,0K,01,02,03,04,05",1958-07-01T00:00:00.000,Open,X146,968 CAULDWELL AVENUE,NY,1010339,239758,-73.905734,40.824717,203,16,18500,2026320027,BX35,Morrisania-Melrose,Ronald Laurent,Principal,718-378-9664,718-328-5858,8,8,COMMUNITY SCHOOL DISTRICT 08,"TOBIA, ERIKA",NYCDOE Borough Office - Bronx,"SAFFER, NANCY",School Support Team 7- Bronx,NULL,NULL,NULL,203,42
2020,07X149,X149,JHS 149 Elijah Clark,320700010149,DOE,General Academic,Junior High-Intermediate-Middle,NULL,"07,08,09",1958-07-01T00:00:00.000,Closed,X149,360 EAST 145 STREET,NY,1006185,235839,-73.9208,40.814,201,8,4300,2023060054,BX39,Mott Haven-Port Morris,NULL,NULL,718-292-2211,718-292-2172,7,7,COMMUNITY SCHOOL DISTRICT 07,Yolanda Torres,NULL,NULL,NULL,NULL,NULL,NULL,201,40
2020,12X150,X150,P.S. 150 Charles James Fox,321200010150,DOE,General Academic,Elementary,"PK,0K,01,02,03,04,05,SE","PK,0K,01,02,03,04,05",1960-07-01T00:00:00.000,Open,X150,920 EAST 167 STREET,NY,1013490,239759,-73.894349,40.82471,202,17,12701,2027170005,BX27,Hunts Point,NORMA SANCHEZ,Principal,718-328-7729,718-589-7590,12,12,COMMUNITY SCHOOL DISTRICT 12,"ROSADO, JACQUELINE",NYCDOE Borough Office - Bronx,"SAFFER, NANCY",School Support Team 5- Bronx,NULL,NULL,NULL,202,41
2020,07X151,X151,J.H.S. 151 Lou Gehrig,320700010151,DOE,General Academic,Junior High-Intermediate-Middle,"06,07,08,SE","06,07,08",1971-07-01T00:00:00.000,Open,X151,250 EAST 156 STREET,NY,1006076,238973,-73.92114,40.822574,204,17,6100,2024430190,BX14,East Concourse-Concourse Village,Diedra Thomas,I.A. Principal,718-292-0260,718-292-5704,7,7,COMMUNITY SCHOOL DISTRICT 07,"ALVAREZ, RAFAEL",NYCDOE Borough Office - Bronx,"SAFFER, NANCY",School Support Team 6- Bronx,NULL,NULL,NULL,204,44
2020,08X152,X152,P.S. 152 Evergreen,320800010152,DOE,General Academic,Elementary,"0K,01,02,03,04,05,SE","PK,0K,01,02,03,04,05,SE",1975-07-01T00:00:00.000,Open,X152,1007 EVERGREEN AVENUE,NY,1017329,239484,-73.880479,40.823941,209,17,5200,2037110001,BX55,Soundview-Bruckner,Christine Baez,I.A. Principal,718-589-4560,718-328-5867,8,8,COMMUNITY SCHOOL DISTRICT 08,"TOBIA, ERIKA",NYCDOE Borough Office - Bronx,"SAFFER, NANCY",School Support Team 7- Bronx,NULL,NULL,NULL,209,43
2020,11X153,X153,P.S. 153 Helen Keller,321100010153,DOE,General Academic,Elementary,"PK,0K,01,02,03,04,05,SE","0K,01,02,03,04,05",1971-07-01T00:00:00.000,Open,X153,650 BAYCHESTER AVENUE,NY,1030803,257757,-73.831669,40.874035,210,12,46201,2051410150,BX13,Co-op City,"KELLEY, MEGHAN",Principal,718-904-5550,718-904-5564,11,11,COMMUNITY SCHOOL DISTRICT 11,"VAUGHAN, CRISTINE",NYCDOE Borough Office - Bronx,"SAFFER, NANCY",School Support Team 10- Bronx,NULL,NULL,NULL,210,45
2020,07X154,X154,P.S. 154 Jonathan D. Hyatt,320700010154,DOE,General Academic,Elementary,"PK,0K,01,02,03,04,05,SE","PK,0K,01,02,03,04,05",1962-07-01T00:00:00.000,Open,X154,333 EAST 135 STREET,NY,1004885,233733,-73.925459,40.808194,201,8,2300,2022980001,BX39,Mott Haven-Port Morris,Dr. Alison Coviello,Principal,718-292-4742,718-292-4721,7,7,COMMUNITY SCHOOL DISTRICT 07,"ALVAREZ, RAFAEL",NYCDOE Borough Office - Bronx,"SAFFER, NANCY",School Support Team 6- Bronx,NULL,NULL,NULL,201,40
2020,07X156,X156,P.S. 156 Benjamin Banneker,320700010156,DOE,General Academic,Elementary,NULL,"PK,0K,01,02,03,04,05,06",1972-07-01T00:00:00.000,Closed,X156,750 CONCOURSE VILLAGE W,NY,1005473,239191,-73.9204,40.8222,204,17,6100,2024430079,BX14,East Concourse-Concourse Village,James Lee,Principal,718-292-5070,718-292-5071,7,7,COMMUNITY SCHOOL DISTRICT 07,Yolanda Torres,NULL,NULL,NULL,NULL,NULL,NULL,204,44
2020,07X157,X157,P.S. 157 Grove Hill,320700010157,DOE,General Academic,Elementary,"PK,0K,01,02,03,04,05,SE","PK,0K,01,02,03,04,05",1967-07-01T00:00:00.000,Open,X157,757 CAULDWELL AVENUE,NY,1009447,237827,-73.908965,40.819419,201,17,7500,2026250001,BX34,Melrose South-Mott Haven North,RAMONA DURAN,Principal,718-292-5255,718-292-5258,7,7,COMMUNITY SCHOOL DISTRICT 07,"ALVAREZ, RAFAEL",NYCDOE Borough Office - Bronx,"SAFFER, NANCY",School Support Team 6- Bronx,NULL,NULL,NULL,201,40
2020,12X158,X158,I S 158 Theodore Gathings,321200010158,DOE,General Academic,Junior High-Intermediate-Middle,NULL,"06,07,08",1974-07-01T00:00:00.000,Closed,X158,800 HOME STREET,NY,1011896,240862,-73.9001,40.8277,203,16,13100,2026710011,BX33,Longwood,Marsha Elliot,Principal,718-542-1155,718-589-8067,12,12,COMMUNITY SCHOOL DISTRICT 12,Myrna Rodriguez,NULL,NULL,NULL,NULL,NULL,NULL,203,42
2020,10X159,X159,P.S. 159 Luis Munoz Marin Biling,321000010159,DOE,General Academic,Elementary,"0K,01,02,03,04,05","0K,01,02,03,04,05",1992-02-19T00:00:00.000,Open,X159,2315 WASHINGTON AVENUE,NY,1013812,251043,-73.893136,40.85568,206,15,38500,2030380065,BX01,Claremont-Bathgate,LUIS LIZ,Principal,718-584-6140,718-584-7794,10,10,COMMUNITY SCHOOL DISTRICT 10,"HULLA, MARIBEL",NYCDOE Borough Office - Bronx,"SAFFER, NANCY",School Support Team 3- Bronx,NULL,NULL,NULL,206,48
2020,11X160,X160,P.S. 160 Walt Disney,321100010160,DOE,General Academic,Elementary,"PK,0K,01,02,03,04,05,SE","0K,01,02,03,04,05",1972-07-01T00:00:00.000,Open,X160,4140 HUTCHINSON RIVER PKWAY EA,NY,1032982,254132,-73.823816,40.864073,210,12,30200,2051350200,BX13,Co-op City,LORI BAKER,Principal,718-822-8402,718-822-8146,11,11,COMMUNITY SCHOOL DISTRICT 11,"VAUGHAN, CRISTINE",NYCDOE Borough Office - Bronx,"SAFFER, NANCY",School Support Team 10- Bronx,NULL,NULL,NULL,210,45
2020,07X161,X161,P.S. 161 Juan Ponce De Leon School,320700010161,DOE,General Academic,Elementary,"PK,0K,01,02,03,04,05,SE","PK,0K,01,02,03,04,05",1968-07-01T00:00:00.000,Open,X161,628 TINTON AVENUE,NY,1010482,235915,-73.905233,40.814168,201,8,7900,2026640029,BX34,Melrose South-Mott Haven North,Eliamarie Soto,Principal,718-292-5478,718-292-5476,7,7,COMMUNITY SCHOOL DISTRICT 07,"ALVAREZ, RAFAEL",NYCDOE Borough Office - Bronx,"SAFFER, NANCY",School Support Team 6- Bronx,NULL,NULL,NULL,201,40
2020,07X162,X162,J.H.S. 162 Lola Rodriguez De Tio,320700010162,DOE,General Academic,Junior High-Intermediate-Middle,"06,07,08,SE","06,07,08",1971-07-01T00:00:00.000,Closed,X162,600 SAINT ANN'S AVENUE,NY,1008598,236164,-73.912038,40.814857,201,17,7300,2026160001,BX34,Melrose South-Mott Haven North,Deborah Sanabria,PRINCIPAL,718-292-0880,718-292-5735,7,7,COMMUNITY SCHOOL DISTRICT 07,"ALVAREZ, ELISA",NULL,NULL,NULL,NULL,NULL,NULL,201,40
2020,09X163,X163,P.S. 163 Arthur A. Schomburg,320900010163,DOE,General Academic,Elementary,"PK,0K,01,02,03,04,05,SE","0K,01,02,03,04,05",1975-07-01T00:00:00.000,Open,X163,2075 WEBSTER AVENUE,NY,1012190,249591,-73.899005,40.8517,205,15,37900,2031420048,BX41,Mount Hope,Barbara Headley,Principal,718-584-3045,718-584-3276,9,9,COMMUNITY SCHOOL DISTRICT 09,"RODRIGUEZ-ROSARIO, LETICIA",NYCDOE Borough Office - Bronx,"SAFFER, NANCY",School Support Team 10- Bronx,NULL,NULL,NULL,205,46
2020,09X166,X166,J.H.S. 166 Roberto Clemente,320900010166,DOE,General Academic,Junior High-Intermediate-Middle,"08,SE","05,06,07,08",1972-07-01T00:00:00.000,Closed,X166,250 EAST 164 STREET,NY,1007025,240954,-73.917705,40.828009,204,16,18302,2024460043,BX14,East Concourse-Concourse Village,LAUREN REISS,PRINCIPAL,718-681-6334,718-537-6043,9,9,COMMUNITY SCHOOL DISTRICT 09,"ESPOSITO, DOLORES",NULL,NULL,NULL,NULL,NULL,NULL,204,44
2020,75X168,X168,P.S. 168,307500012168,DOE,Special Education,K-12 all grades,"PK,0K,01,02,03,04,05,06,07,08,09,10,11,SE","PK,01,02,03,04,05,06,07,08,09,10,11,12,SE",1997-05-30T00:00:00.000,Open,X020,3050 WEBSTER AVENUE,NY,1017790,256077,-73.878731,40.869482,207,11,42500,2033300001,BX43,Norwood,MAUREEN FULLERTON,Principal,718-585-2100,718-585-8316,10,75,CITYWIDE SPECIAL EDUCATION,"LOUISSAINT, KETLER",D75 CITYWIDE BCO,Tillman Roberto,Children First Network 752,NULL,NULL,NULL,207,52
2020,11X169,X169,Baychester Academy,321100010169,DOE,General Academic,Elementary,"PK,0K,01,02,03,04,05,SE","PK,0K,01,02,03,04,05",2009-07-01T00:00:00.000,Open,X169,3500 EDSON AVENUE,NY,1028664,260416,-73.839386,40.881344,212,12,46000,2048940001,BX03,Eastchester-Edenwald-Baychester,Kendra Gardner,I.A. Principal,718-325-1138,718-325-1558,11,11,COMMUNITY SCHOOL DISTRICT 11,"VAUGHAN, CRISTINE",NYCDOE Borough Office - Bronx,"SAFFER, NANCY",School Support Team 9- Bronx,NULL,NULL,NULL,212,47
2020,09X170,X170,P.S. 170,320900010170,DOE,General Academic,Early Childhood,"PK,0K,01,02,SE","0K,01,02",1993-07-01T00:00:00.000,Open,X170,1598 TOWNSEND AVENUE,NY,1008251,246915,-73.913253,40.844367,204,14,22702,2028470041,BX41,Mount Hope,Sonia Acevedo Suarez,Principal,718-583-0662,718-583-0685,9,9,COMMUNITY SCHOOL DISTRICT 09,"RODRIGUEZ-ROSARIO, LETICIA",NYCDOE Borough Office - Bronx,"SAFFER, NANCY",School Support Team 10- Bronx,NULL,NULL,NULL,204,44
2020,08X174,X174,I.S. 174 Eugene T. Maleska,320800010174,DOE,General Academic,Junior High-Intermediate-Middle,"08,SE","05,06,07,08",1972-07-01T00:00:00.000,Closed,X174,456 WHITE PLAINS ROAD,NY,1023957,236133,-73.8566,40.8147,209,18,400,2034780018,BX09,Soundview-Castle Hill-Clason Point-Harding Park,Sharon Delaney,Principal,718-617-5293,718-328-3124,8,8,COMMUNITY SCHOOL DISTRICT 08,Dov Rokeach,NULL,NULL,NULL,NULL,NULL,NULL,209,43
2020,11X175,X175,P.S. 175 City Island,321100010175,DOE,General Academic,K-8,"0K,01,02,03,04,05,06,07,08,SE","0K,01,02,03,04,05,06,07,08",1975-07-01T00:00:00.000,Open,X175,200 CITY ISLAND AVENUE,NY,1044140,246972,-73.78354,40.844353,210,13,51600,2056410280,BX10,Pelham Bay-Country Club-City Island,JULIE PORRAS,Principal,718-885-1093,718-885-2315,11,11,COMMUNITY SCHOOL DISTRICT 11,"VAUGHAN, CRISTINE",NYCDOE Borough Office - Bronx,"SAFFER, NANCY",School Support Team 10- Bronx,NULL,NULL,NULL,210,45
2020,75X176,X176,P.S. X176,307500012176,DOE,Special Education,K-12 all grades,"06,07,08,09,10,11,12,SE","PK,01,02,03,04,05,06,07,08,09,10,11,12,SE",1999-07-01T00:00:00.000,Open,X455,750 BAYCHESTER AVENUE,NY,1030803,257757,-73.831669,40.874035,210,12,46201,2051410150,BX13,Co-op City,ALEXANDRA GUERRIERO,Principal,718-904-5700,718-904-5689,11,75,CITYWIDE SPECIAL EDUCATION,"LOUISSAINT, KETLER",D75 CITYWIDE BCO,Tillman Roberto,Children First Network 752,NULL,NULL,NULL,210,45
2020,11X178,X178,P.S. 178 - Dr. Selman Waksman,321100010178,DOE,General Academic,Elementary,"0K,01,02,03,04,05,SE","0K,01,02,03,04,05",1972-07-01T00:00:00.000,Open,X178,850 BAYCHESTER AVENUE,NY,1030803,257757,-73.831669,40.874035,210,12,46201,2051410150,BX13,Co-op City,Schwanna Ellman,I.A. Principal,718-904-5570,718-904-5575,11,11,COMMUNITY SCHOOL DISTRICT 11,"VAUGHAN, CRISTINE",NYCDOE Borough Office - Bronx,"SAFFER, NANCY",School Support Team 10- Bronx,NULL,NULL,NULL,210,45
2020,07X179,X179,P.S. 179,320700010179,DOE,General Academic,Elementary,"PK,0K,01,02,03,04,05,SE","PK,0K,01,02,03,04,05",2001-07-01T00:00:00.000,Open,X040,468 EAST 140 STREET,NY,1006459,234057,-73.919773,40.80908,201,8,3900,2022840034,BX39,Mott Haven-Port Morris,SHERRY FONT WILLIAMS,Principal,718-292-2237,718-292-3623,7,7,COMMUNITY SCHOOL DISTRICT 07,"ALVAREZ, RAFAEL",NYCDOE Borough Office - Bronx,"SAFFER, NANCY",School Support Team 6- Bronx,NULL,NULL,NULL,201,40
2020,11X180,X180,M.S. 180 Dr. Daniel Hale Williams,321100010180,DOE,General Academic,Junior High-Intermediate-Middle,"06,07,08,SE","06,07,08",1972-07-01T00:00:00.000,Open,X180,700 BAYCHESTER AVENUE,NY,1030803,257757,-73.831669,40.874035,210,12,46201,2051410150,BX13,Co-op City,MARLON WILLIAMS,Principal,718-904-5650,718-904-5655,11,11,COMMUNITY SCHOOL DISTRICT 11,"VAUGHAN, CRISTINE",NYCDOE Borough Office - Bronx,"SAFFER, NANCY",School Support Team 10- Bronx,NULL,NULL,NULL,210,45
2020,11X181,X181,I.S. 181 Pablo Casals,321100010181,DOE,General Academic,Junior High-Intermediate-Middle,"06,07,08,SE","06,07,08",1972-07-01T00:00:00.000,Open,X181,800 BAYCHESTER AVENUE,NY,1030803,257757,-73.831669,40.874035,210,12,46201,2051410150,BX13,Co-op City,CHRISTOPHE WARNOCK,Principal,718-904-5600,718-904-5620,11,11,COMMUNITY SCHOOL DISTRICT 11,"VAUGHAN, CRISTINE",NYCDOE Borough Office - Bronx,"SAFFER, NANCY",School Support Team 9- Bronx,NULL,NULL,NULL,210,45
2020,08X182,X182,P.S. 182,320800010182,DOE,General Academic,Elementary,"PK,0K,01,02,03,04,05,SE","PK,0K,01,02,03,04,05",1977-07-01T00:00:00.000,Open,X182,601 STICKBALL BOULEVARD,NY,1023837,237666,-73.856976,40.818925,209,18,1600,2035640001,BX09,Soundview-Castle Hill-Clason Point-Harding Park,ANNE OGRADY,Principal,718-828-6607,718-409-8152,8,8,COMMUNITY SCHOOL DISTRICT 08,"TOBIA, ERIKA",NYCDOE Borough Office - Bronx,"SAFFER, NANCY",School Support Team 7- Bronx,NULL,NULL,NULL,209,43
2020,08X182,X182,P.S. 182,320800010182,DOE,General Academic,Elementary,"PK,0K,01,02,03,04,05,SE","PK,0K,01,02,03,04,05",1977-07-01T00:00:00.000,Open,X182,601 STICKBALL BOULEVARD,NY,1023837,237666,-73.856976,40.818925,209,18,1600,2035640001,BX09,Soundview-Castle Hill-Clason Point-Harding Park,ANNE OGRADY,Principal,718-828-6607,718-409-8152,8,8,COMMUNITY SCHOOL DISTRICT 08,"TOBIA, ERIKA",NYCDOE Borough Office - Bronx,"SAFFER, NANCY",School Support Team 7- Bronx,NULL,NULL,NULL,209,43
2020,07X184,X184,I S 184 Rafael C Y Molina,320700010184,DOE,General Academic,Junior High-Intermediate-Middle,"08,SE","06,07,08",1975-07-01T00:00:00.000,Closed,X184,778 FOREST AVENUE,NY,1010288,237629,-73.9059,40.8189,201,17,7700,2026550030,BX34,Melrose South-Mott Haven North,Alejandro Soto,Principal,718-292-1684,718-292-5861,7,7,COMMUNITY SCHOOL DISTRICT 07,Yolanda Torres,NULL,NULL,NULL,NULL,NULL,NULL,201,40
2020,75X186,X186,P186X Walter J. Damrosch School,307500012186,DOE,Special Education,K-12 all grades,"0K,01,02,03,04,05,06,07,08,09,10,11,12,SE","01,02,03,04,05,06,07,08,09,10,11,12,SE",1990-12-06T00:00:00.000,Open,X136,750 JENNINGS STREET,NY,1012533,242191,-73.897797,40.831388,203,16,15100,2029690001,BX35,Morrisania-Melrose,AVA KAPLAN,Principal,718-378-0006,718-589-9544,12,75,CITYWIDE SPECIAL EDUCATION,"LOUISSAINT, KETLER",D75 CITYWIDE BCO,Tillman Roberto,Children First Network 751,NULL,NULL,NULL,203,42
2020,75X188,X188,P.S. X188,307500012188,DOE,Special Education,K-12 all grades,"PK,0K,01,02,03,04,05,06,07,08,09,10,11,12,SE","PK,01,02,03,04,05,06,07,08,09,10,11,12,SE",1995-05-30T00:00:00.000,Open,X034,770 GROTE STREET,NY,1016376,249038,-73.883877,40.850168,206,15,39300,2031000014,BX06,Belmont,SHANIE JOHNSON,Principal,718-561-2052,718-561-2683,10,75,CITYWIDE SPECIAL EDUCATION,"LOUISSAINT, KETLER",D75 CITYWIDE BCO,Tillman Roberto,Children First Network 751,NULL,NULL,NULL,206,48
2020,75X188,X188,P.S. X188,307500012188,DOE,Special Education,K-12 all grades,"PK,0K,01,02,03,04,05,06,07,08,09,10,11,12,SE","PK,01,02,03,04,05,06,07,08,09,10,11,12,SE",1995-05-30T00:00:00.000,Open,X034,770 GROTE STREET,NY,1016376,249038,-73.883877,40.850168,206,15,39300,2031000014,BX06,Belmont,SHANIE JOHNSON,Principal,718-561-2052,718-561-2683,10,75,CITYWIDE SPECIAL EDUCATION,"LOUISSAINT, KETLER",D75 CITYWIDE BCO,Tillman Roberto,Children First Network 751,NULL,NULL,NULL,206,48
2020,11X189,X189,Cornerstone Academy for Social Action,321100010189,DOE,General Academic,Elementary,"PK,0K,01,02,03,04,05,SE","PK,0K,01,02,03,04,05",2007-07-01T00:00:00.000,Open,X189,3441 STEENWICK AVENUE,NY,1031088,260943,-73.830616,40.882778,212,12,46202,2052630192,BX13,Co-op City,James Bellon,Principal,718-794-6160,718-794-6170,11,11,COMMUNITY SCHOOL DISTRICT 11,"VAUGHAN, CRISTINE",NYCDOE Borough Office - Bronx,"SAFFER, NANCY",School Support Team 9- Bronx,NULL,NULL,NULL,212,47
2020,12X190,X190,E.S.M.T- I.S. 190,321200010190,DOE,General Academic,Junior High-Intermediate-Middle,"06,07,08,SE","06,07,08",2001-07-01T00:00:00.000,Open,X061,1550 CROTONA PARK EAST,NY,1013918,243930,-73.892784,40.836156,203,17,15300,2029390045,BX75,Crotona Park East,Castella Mckenzie,Principal,718-620-9423,718-620-9927,12,12,COMMUNITY SCHOOL DISTRICT 12,"ROSADO, JACQUELINE",NYCDOE Borough Office - Bronx,"SAFFER, NANCY",School Support Team 5- Bronx,NULL,NULL,NULL,203,42
2020,12X191,X191,IS 191,321200010191,DOE,General Academic,Junior High-Intermediate-Middle,NULL,"01,02,03,04,05,06",2001-07-01T00:00:00.000,Closed,X129,2055 MAPES AVENUE,NY,1015740,247474,-73.8862,40.8458,206,15,37100,2031090001,BX17,East Tremont,NULL,NULL,718-933-5976,718-563-9585,12,12,COMMUNITY SCHOOL DISTRICT 12,Myrna Rodriguez,NULL,NULL,NULL,NULL,NULL,NULL,206,48
2020,08X192,X192,I.S. 192 Piagentini-Jones,320800010192,DOE,General Academic,Junior High-Intermediate-Middle,"07,08,SE","06,07,08,09",1973-07-01T00:00:00.000,Closed,X192,650 HOLLYWOOD AVENUE,NY,1034504,240455,-73.8184,40.8265,210,13,15800,2054380001,BX52,Schuylerville-Throgs Neck-Edgewater Park,Jeanette Vargas,Principal,718-822-5317,718-239-3124,8,8,COMMUNITY SCHOOL DISTRICT 08,Dov Rokeach,NULL,NULL,NULL,NULL,NULL,NULL,210,45
2020,11X194,X194,P.S./M.S. 194,321100010194,DOE,General Academic,K-8,"0K,01,02,03,04,05,06,07,08,SE","0K,01,02,03,04,05,06,07,08",2003-07-01T00:00:00.000,Open,X194,2365 WATERBURY AVENUE,NY,1026700,243677,-73.846594,40.83541,210,18,9600,2038340070,BX59,Westchester-Unionport,Rosa Sifuentes-Rosado,Principal,718-892-5270,718-892-2495,11,11,COMMUNITY SCHOOL DISTRICT 11,"VAUGHAN, CRISTINE",NYCDOE Borough Office - Bronx,"SAFFER, NANCY",School Support Team 10- Bronx,NULL,NULL,NULL,210,45
2020,12X195,X195,P.S. 195,321200010195,DOE,General Academic,Elementary,"PK,0K,01,02,03,04,05,SE","02,03,04,05",1999-07-01T00:00:00.000,Open,X077,1250 WARD AVENUE,NY,1018204,241988,-73.877305,40.830811,209,18,5400,2037750025,BX08,West Farms-Bronx River,Richard Webster,Principal,718-861-4461,718-861-7935,12,12,COMMUNITY SCHOOL DISTRICT 12,"ROSADO, JACQUELINE",NYCDOE Borough Office - Bronx,"SAFFER, NANCY",School Support Team 5- Bronx,NULL,NULL,NULL,209,43
2020,12X196,X196,P.S. 196,321200010196,DOE,General Academic,Elementary,"PK,0K,01,02,03,04,05,SE","02,03,04,05",1999-07-01T00:00:00.000,Open,X077,1250 WARD AVENUE,NY,1018204,241988,-73.877305,40.830811,209,18,5400,2037750025,BX08,West Farms-Bronx River,LIZZETTE GRACIANI,Principal,718-328-7187,718-861-8401,12,12,COMMUNITY SCHOOL DISTRICT 12,"ROSADO, JACQUELINE",NYCDOE Borough Office - Bronx,"SAFFER, NANCY",School Support Team 5- Bronx,NULL,NULL,NULL,209,43
2020,12X197,X197,P.S. 197,321200010197,DOE,General Academic,Early Childhood,"0K,01","PK,0K,01",1999-07-01T00:00:00.000,Closed,X077,1250 WARD AVENUE,NY,1018204,241988,-73.877305,40.830811,209,18,5400,2037750025,BX08,West Farms-Bronx River,NULL,NULL,718-842-2111,718-589-7473,12,12,COMMUNITY SCHOOL DISTRICT 12,"RODRIGUEZ, MYRNA",NULL,NULL,NULL,NULL,NULL,NULL,209,43
2020,12X198,X198,P.S. 198,321200010198,DOE,General Academic,Elementary,"05,SE","0K,01,02,03,04,05",1974-07-01T00:00:00.000,Closed,X198,1180 TINTON AVENUE,NY,1011891,241104,-73.900121,40.828406,203,17,13500,2026720001,BX35,Morrisania-Melrose,RONNIE NELSON,PRINCIPAL,718-842-5656,718-589-7680,12,12,COMMUNITY SCHOOL DISTRICT 12,"RODRIGUEZ, MYRNA",NULL,NULL,NULL,NULL,NULL,NULL,203,42
2020,09X199,X199,P.S. 199X - The Shakespeare School,320900010199,DOE,General Academic,Elementary,"PK,0K,01,02,03,04,05,SE","PK,0K,01,02,03,04,05",2000-08-21T00:00:00.000,Open,X104,1449 SHAKESPEARE AVENUE,NY,1006156,246580,-73.920826,40.843453,204,16,21302,2028730027,BX26,Highbridge,YASMIN QUEZADA,Principal,718-681-7172,718-681-7176,9,9,COMMUNITY SCHOOL DISTRICT 09,"RODRIGUEZ-ROSARIO, LETICIA",NYCDOE Borough Office - Bronx,"SAFFER, NANCY",School Support Team 8- Bronx,NULL,NULL,NULL,204,44
2020,08X201,X201,M.S. X201,320800010201,DOE,General Academic,Junior High-Intermediate-Middle,NULL,"05,06,07,08",2000-08-21T00:00:00.000,Closed,X074,730 BRYANT AVENUE,NY,1015869,236398,-73.8858,40.8155,202,17,11700,2027630279,BX27,Hunts Point,JOHN HUGHES,I.A. Principal,718-328-1972,718-328-7330,8,8,COMMUNITY SCHOOL DISTRICT 08,Dov Rokeach,NULL,NULL,NULL,NULL,NULL,NULL,202,41
2020,07X203,X203,M.S. 203,320700010203,DOE,General Academic,Junior High-Intermediate-Middle,"08,SE","06,07,08",2001-07-01T00:00:00.000,Closed,X183,339 MORRIS AVENUE,NY,1004735,235732,-73.925995,40.813681,201,8,5100,2023330070,BX39,Mott Haven-Port Morris,WILLIAM HEWLETT JR,PRINCIPAL,718-292-1052,718-292-5765,7,7,COMMUNITY SCHOOL DISTRICT 07,"TORRES, YOLANDA",NULL,NULL,NULL,NULL,NULL,NULL,201,40
2020,09X204,X204,P.S. 204 Morris Heights,320900010204,DOE,General Academic,Elementary,"PK,0K,01,02,03,04,05,SE","0K,01,02,03,04,05",1991-08-26T00:00:00.000,Open,X338,1780 DR. MARTIN LUTHER KING JR. BLVD,NY,1007706,248754,-73.915217,40.849416,205,14,21502,2028660070,BX36,University Heights-Morris Heights,Amanda Blatter,Principal,718-960-9520,718-960-9529,9,9,COMMUNITY SCHOOL DISTRICT 09,"RODRIGUEZ-ROSARIO, LETICIA",NYCDOE Borough Office - Bronx,"SAFFER, NANCY",School Support Team 10- Bronx,NULL,NULL,NULL,205,46
2020,10X205,X205,P.S. 205 Fiorello LaGuardia,321000010205,DOE,General Academic,Elementary,"0K,01,02,03,04,05,SE","0K,01,02,03,04,05",1976-07-01T00:00:00.000,Open,X205,2475 SOUTHERN BOULEVARD,NY,1016961,251076,-73.881753,40.855759,206,15,39300,2031150021,BX06,Belmont,Jenneth Santiago,I.A. Principal,718-584-6390,718-584-7941,10,10,COMMUNITY SCHOOL DISTRICT 10,"HULLA, MARIBEL",NYCDOE Borough Office - Bronx,"SAFFER, NANCY",School Support Team 3- Bronx,NULL,NULL,NULL,206,48
2020,10X206,X206,I.S. 206 Ann Mersereau,321000010206,DOE,General Academic,Junior High-Intermediate-Middle,"06,07,08,SE","05,06,07,08",1980-07-01T00:00:00.000,Open,X206,2280 AQUEDUCT AVENUE,NY,1010173,252443,-73.906285,40.859534,207,14,25300,2032090001,BX30,Kingsbridge Heights,RAFAEL CABRAL,Principal,718-584-1570,718-584-7928,10,10,COMMUNITY SCHOOL DISTRICT 10,"HULLA, MARIBEL",NYCDOE Borough Office - Bronx,"SAFFER, NANCY",School Support Team 4- Bronx,NULL,NULL,NULL,207,52
2020,10X207,X207,P.S. 207,321000010207,DOE,General Academic,Early Childhood,"PK,0K,01,02,03,04,SE","PK,0K,01,02",1988-03-02T00:00:00.000,Open,X819,3030 GODWIN TERRACE,NY,1010190,259290,-73.906197,40.878327,208,11,28900,2057010105,BX29,Spuyten Duyvil-Kingsbridge,TARA OBRIEN,I.A. Principal,718-796-9645,718-796-7206,10,10,COMMUNITY SCHOOL DISTRICT 10,"HULLA, MARIBEL",NYCDOE Borough Office - Bronx,"SAFFER, NANCY",School Support Team 4- Bronx,NULL,NULL,NULL,208,50
2020,10X209,X209,P.S. 209,321000010209,DOE,General Academic,Early Childhood,"PK,0K,01,02,SE","PK,0K,01,02",1993-07-01T00:00:00.000,Open,X209,313 EAST 183RD STREET,NY,1012567,251462,-73.897635,40.856834,205,15,38301,2031460075,BX40,Fordham South,ANN KEEGAN,Principal,718-364-0085,718-364-9548,10,10,COMMUNITY SCHOOL DISTRICT 10,"HULLA, MARIBEL",NYCDOE Borough Office - Bronx,"SAFFER, NANCY",School Support Team 3- Bronx,NULL,NULL,NULL,205,46
2020,12X211,X211,P.S. 211,321200010211,DOE,General Academic,K-8,"PK,0K,01,02,03,04,05,06,07,08,SE","PK,0K,01,02,03,04,05,06,07,08",1990-12-06T00:00:00.000,Open,X193,1919 PROSPECT AVENUE,NY,1014645,246681,-73.890145,40.843705,206,17,36901,2029510032,BX17,East Tremont,Tanya Drummond,Principal,718-901-0436,718-901-4681,12,12,COMMUNITY SCHOOL DISTRICT 12,"ROSADO, JACQUELINE",NYCDOE Borough Office - Bronx,"SAFFER, NANCY",School Support Team 5- Bronx,NULL,NULL,NULL,206,48
2020,12X212,X212,P.S. 212,321200010212,DOE,General Academic,K-8,"PK,0K,01,02,03,04,05,SE","0K,01,02,03,04,05",1999-07-01T00:00:00.000,Open,X198,1180 TINTON AVENUE,NY,1011891,241104,-73.900121,40.828406,203,17,13500,2026720001,BX35,Morrisania-Melrose,Fatimah Ali,Principal,718-842-2331,718-842-8677,12,12,COMMUNITY SCHOOL DISTRICT 12,"ROSADO, JACQUELINE",NYCDOE Borough Office - Bronx,"SAFFER, NANCY",School Support Team 5- Bronx,NULL,NULL,NULL,203,42
2020,10X213,X213,Bronx Engineering and Technology Academy,321000011213,DOE,General Academic,High school,"09,10,11,12,SE","09,10,11,12",2004-09-08T00:00:00.000,Open,X475,99 TERRACE VIEW AVENUE,NY,1008396,258943,-73.912686,40.877379,208,10,30900,1022150080,MN01,Marble Hill-Inwood,Vijayal Montgomery-Giles,Principal,718-563-6678,718-817-7698,10,10,NULL,NULL,NYCDOE Citywide Office - Affinity Schools,NULL,School Support Team 2- Affinity Group,HS07,HS Network 07 Superintendent Office,"CINTRON, RICHARD",208,50
2020,12X214,X214,P.S. 214,321200010214,DOE,General Academic,K-8,"PK,0K,01,02,03,04,05,06,07,08,SE","PK,0K,01,02,03,04,05,06,07,08",1999-07-01T00:00:00.000,Open,X167,1970 WEST FARMS ROAD,NY,1017473,245079,-73.879931,40.839297,206,17,6000,2030210038,BX75,Crotona Park East,DAVID CINTRON,Principal,718-589-6728,718-328-7762,12,12,COMMUNITY SCHOOL DISTRICT 12,"ROSADO, JACQUELINE",NYCDOE Borough Office - Bronx,"SAFFER, NANCY",School Support Team 5- Bronx,NULL,NULL,NULL,206,48
2020,09X215,X215,Kappa,320900010215,DOE,General Academic,Junior High-Intermediate-Middle,"06,07,08,SE","05,06,07,08",2000-07-01T00:00:00.000,Open,X148,3630 THIRD AVENUE,NY,1010829,242956,-73.903951,40.833493,203,16,14701,2029250001,BX01,Claremont-Bathgate,SHERI WARREN,Principal,718-590-5455,718-681-4266,9,9,COMMUNITY SCHOOL DISTRICT 09,"RODRIGUEZ-ROSARIO, LETICIA",NYCDOE Borough Office - Bronx,"SAFFER, NANCY",School Support Team 10- Bronx,NULL,NULL,NULL,203,42
2020,12X216,X216,Business School for Entrepreneurial Studies,321200010216,DOE,General Academic,Junior High-Intermediate-Middle,8,"05,06,07,08",2001-07-01T00:00:00.000,Closed,X116,977 FOX STREET,NY,1013486,238792,-73.894368,40.822056,202,17,15900,2027140004,BX27,Hunts Point,NULL,NULL,718-991-8489,718-378-3352,12,12,COMMUNITY SCHOOL DISTRICT 12,"RODRIGUEZ, MYRNA",NULL,NULL,NULL,NULL,NULL,NULL,202,41
2020,12X217,X217,School of Performing Arts,321200010217,DOE,General Academic,Junior High-Intermediate-Middle,"06,07,08,SE","06,07,08",2001-07-01T00:00:00.000,Open,X116,977 FOX STREET,NY,1013486,238792,-73.894368,40.822056,202,17,15900,2027140004,BX27,Hunts Point,Dionne Williams,I.A. Principal,718-589-4844,718-589-7998,12,12,COMMUNITY SCHOOL DISTRICT 12,"ROSADO, JACQUELINE",NYCDOE Borough Office - Bronx,"SAFFER, NANCY",School Support Team 5- Bronx,NULL,NULL,NULL,202,41
2020,09X218,X218,P.S./I.S. 218 Rafael Hernandez Dual Language Magne,320900010218,DOE,General Academic,K-8,"0K,01,02,03,04,05,06,07,08,SE","0K,01,02,03,04,05,06,07,08",1999-07-01T00:00:00.000,Open,X235,1220 GERARD AVENUE,NY,1006506,243749,-73.919571,40.835681,204,16,19700,2024800008,BX63,West Concourse,SERGIO CACERES,Principal,718-410-7230,718-410-8933,9,9,COMMUNITY SCHOOL DISTRICT 09,"RODRIGUEZ-ROSARIO, LETICIA",NYCDOE Borough Office - Bronx,"SAFFER, NANCY",School Support Team 10- Bronx,NULL,NULL,NULL,204,44
2020,09X219,X219,I.S. 219 New Venture School,320900010219,DOE,General Academic,Junior High-Intermediate-Middle,"06,07,08,SE","06,07,08",1999-07-01T00:00:00.000,Open,X148,3630 THIRD AVENUE,NY,1010829,242956,-73.903951,40.833493,203,16,14701,2029250001,BX01,Claremont-Bathgate,KELLEYANN ROYCE GIRON,I.A. Principal,718-681-7093,718-681-7324,9,9,COMMUNITY SCHOOL DISTRICT 09,"RODRIGUEZ-ROSARIO, LETICIA",NYCDOE Borough Office - Bronx,"SAFFER, NANCY",School Support Team 10- Bronx,NULL,NULL,NULL,203,42
2020,07X220,X220,P.S. 220 Mott Haven Village School,320700010220,DOE,General Academic,K-8,NULL,"0K,01,02,03,04,05",1999-07-01T00:00:00.000,Closed,X040,468 EAST 140 STREET,NY,1006423,234222,-73.9199,40.8095,201,8,3900,2022840034,BX39,Mott Haven-Port Morris,Michele Kahn,Principal,718-292-7391,718-292-8535,7,7,COMMUNITY SCHOOL DISTRICT 07,Yolanda Torres,NULL,NULL,NULL,NULL,NULL,NULL,201,40
2020,07X221,X221,South Bronx Preparatory: A College Board School,320700011221,DOE,General Academic,Secondary School,"06,07,08,09,10,11,12,SE","06,07,08,09,10,11,12",2004-09-08T00:00:00.000,Open,X149,360 EAST 145 STREET,NY,1006159,235708,-73.920851,40.813612,201,8,4300,2023060054,BX39,Mott Haven-Port Morris,ELLEN FLANAGAN,Principal,718-292-2211,718-292-2172,7,7,NULL,NULL,NYCDOE Borough Office - Bronx,"SAFFER, NANCY",School Support Team 1- Bronx,HS02,HS Network 02 Superintendent Office,"STAPLE, CARRON",201,40
2020,07X222,X222,IS 222,320700010222,DOE,General Academic,Junior High-Intermediate-Middle,NULL,"02,06,07,08",1999-07-01T00:00:00.000,Closed,X139,345 BROOK AVENUE,NY,1007004,234401,-73.9178,40.81,201,8,4100,2022860036,BX39,Mott Haven-Port Morris,RoseMarie Mills,Principal,718-292-4474,718-292-4473,7,7,COMMUNITY SCHOOL DISTRICT 07,Yolanda Torres,NULL,NULL,NULL,NULL,NULL,NULL,201,40
2020,07X223,X223,The Laboratory School of Finance and Technology: X,320700010223,DOE,General Academic,Secondary School,"06,07,08,09,10,11,12,SE","06,07,08,09,10,11,12",2003-07-01T00:00:00.000,Open,X149,360 EAST 145 STREET,NY,1006159,235708,-73.920851,40.813612,201,8,4300,2023060054,BX39,Mott Haven-Port Morris,DR. RAMON GONZALEZ,Principal,718-585-8202,718-292-7435,7,7,COMMUNITY SCHOOL DISTRICT 07,"ALVAREZ, RAFAEL",NYCDOE Borough Office - Bronx,"SAFFER, NANCY",School Support Team 6- Bronx,NULL,NULL,NULL,201,40
2020,07X224,X224,P.S./I.S. 224,320700010224,DOE,General Academic,Junior High-Intermediate-Middle,"06,07,08,SE","06,07,08",2003-07-01T00:00:00.000,Open,X139,345 BROOK AVENUE,NY,1006735,234507,-73.918774,40.810314,201,8,4100,2022860036,BX39,Mott Haven-Port Morris,Deborah Sanabria,I.A. Principal,718-665-9804,718-665-0078,7,7,COMMUNITY SCHOOL DISTRICT 07,"ALVAREZ, RAFAEL",NYCDOE Borough Office - Bronx,"SAFFER, NANCY",School Support Team 6- Bronx,NULL,NULL,NULL,201,40
2020,10X225,X225,Theatre Arts Production Company School,321000010225,DOE,General Academic,Secondary School,"06,07,08,09,10,11,12,SE","06,07,08,09,10,11,12",1999-07-01T00:00:00.000,Open,X137,2225 WEBSTER AVENUE,NY,1012632,250523,-73.897404,40.854257,205,15,37900,2031430043,BX41,Mount Hope,Ron Link,Principal,718-584-0832,718-584-5102,10,10,NULL,NULL,NYCDOE Borough Office - Bronx,"SAFFER, NANCY",School Support Team 1- Bronx,HS02,HS Network 02 Superintendent Office,"STAPLE, CARRON",205,46
2020,10X226,X226,P.S. 226,321000010226,DOE,General Academic,Elementary,"PK,0K,01,02,03,04,05,SE","PK,0K,01,02,03,04",1999-07-01T00:00:00.000,Open,X826,1950 SEDGWICK AVENUE,NY,1007466,251088,-73.916076,40.855822,205,14,24900,2032220100,BX36,University Heights-Morris Heights,GLORIA DARDEN,Principal,929-452-3090,929-452-3095,10,10,COMMUNITY SCHOOL DISTRICT 10,"HULLA, MARIBEL",NYCDOE Borough Office - Bronx,"SAFFER, NANCY",School Support Team 3- Bronx,NULL,NULL,NULL,205,46
2020,09X227,X227,Bronx Collegiate Academy,320900011227,DOE,General Academic,High school,"09,10,11,12,SE","09,10,11,12",2004-09-08T00:00:00.000,Open,X410,240 EAST 172 STREET,NY,1008775,245072,-73.911366,40.839307,204,16,22500,2028170002,BX14,East Concourse-Concourse Village,D White,Principal,718-410-4077,718-340-3659,9,9,NULL,NULL,NYCDOE Borough Office - Bronx,"SAFFER, NANCY",School Support Team 2- Bronx,HS09,HS Network 09 Superintendent Office,"ALCOFF, MICHAEL",204,44
2020,10X228,X228,Jonas Bronck Academy,321000010228,DOE,General Academic,Junior High-Intermediate-Middle,"06,07,08,SE","06,07,08",2000-07-01T00:00:00.000,Open,X283,400 EAST FORDHAM ROAD,NY,1014245,252977,-73.891562,40.860987,206,15,38302,2030337501,BX40,Fordham South,Brenda Gonzalez,Principal,718-365-2502,718-365-3892,10,10,COMMUNITY SCHOOL DISTRICT 10,"HULLA, MARIBEL",NYCDOE Borough Office - Bronx,"SAFFER, NANCY",School Support Team 4- Bronx,NULL,NULL,NULL,206,48
2020,09X229,X229,I.S. 229 Roland Patterson,320900010229,DOE,General Academic,Junior High-Intermediate-Middle,"06,07,08,SE","05,06,07,08",1977-07-01T00:00:00.000,Open,X229,275 HARLEM RIVER PARK BRIDGE,NY,1005976,249889,-73.9216,40.8524,205,16,5300,2028820130,BX36,University Heights-Morris Heights,PATRICK KELLY,Acting Principal,718-583-6266,718-583-6325,9,9,COMMUNITY SCHOOL DISTRICT 09,"RODRIGUEZ-ROSARIO, LETICIA",NYCDOE Borough Office - Bronx,"SAFFER, NANCY",School Support Team 10- Bronx,NULL,NULL,NULL,205,46
2020,09X230,X230,P.S. 230 Dr Roland N. Patterson,320900010230,DOE,General Academic,Elementary,"05,SE","0K,01,02,03,04",1992-05-18T00:00:00.000,Closed,X229,275 HARLEM RIVER PARK BRIDGE,NY,1005976,249889,-73.9216,40.8524,205,16,5300,2028820130,BX36,University Heights-Morris Heights,Rosalind Hoyte,I.A. PRINCIPAL,718-583-6116,718-583-6222,9,9,COMMUNITY SCHOOL DISTRICT 09,"RODRIGUEZ-ROSARIO, LETICIA",NULL,NULL,NULL,NULL,NULL,NULL,205,46
2020,09X231,X231,Eagle Academy for Young Men,320900011231,DOE,General Academic,Secondary School,"06,07,08,09,10,11,12,SE","06,07,08,09,10,11,12",2004-09-08T00:00:00.000,Open,X465,4143 THIRD AVENUE,NY,1012615,247284,-73.897479,40.845366,206,15,39500,2029230018,BX01,Claremont-Bathgate,Hector Velazquez,Principal,718-466-8000,718-466-8090,9,9,NULL,NULL,NYCDOE Borough Office - Bronx,"SAFFER, NANCY",School Support Team 2- Bronx,HS09,HS Network 09 Superintendent Office,"ALCOFF, MICHAEL",206,48
2020,09X232,X232,I.S. 232,320900010232,DOE,General Academic,Junior High-Intermediate-Middle,"06,07,08,SE","06,07,08",2000-07-01T00:00:00.000,Open,X082,1700 MACOMBS ROAD,NY,1007706,248754,-73.915217,40.849416,205,14,21502,2028660070,BX36,University Heights-Morris Heights,Desiree Resto,Principal,718-583-7007,718-583-4864,9,9,COMMUNITY SCHOOL DISTRICT 09,"RODRIGUEZ-ROSARIO, LETICIA",NYCDOE Borough Office - Bronx,"SAFFER, NANCY",School Support Team 8- Bronx,NULL,NULL,NULL,205,46
2020,12X234,X234,PS 234 Twin Parks,321200010234,DOE,General Academic,Elementary,NULL,"0K,01,02,03,04",1971-07-01T00:00:00.000,Closed,X234,2050 PROSPECT AVENUE,NY,1015402,247604,-73.8874,40.8462,206,15,37100,2031090001,BX17,East Tremont,NULL,NULL,718-584-6310,718-220-1370,12,12,COMMUNITY SCHOOL DISTRICT 12,Myrna Rodriguez,NULL,NULL,NULL,NULL,NULL,NULL,206,48
2020,09X236,X236,P.S. 236 Langston Hughes,320900010236,DOE,General Academic,Elementary,"PK,0K,01,02,03,04,05,SE","PK,0K,01,02,03,04,05",1971-07-01T00:00:00.000,Open,X173,1871 WALTON AVENUE,NY,1009167,248570,-73.909936,40.848907,205,14,23301,2028510021,BX41,Mount Hope,Afrina Talukdar,Principal,718-299-6128,718-299-6503,9,9,COMMUNITY SCHOOL DISTRICT 09,"RODRIGUEZ-ROSARIO, LETICIA",NYCDOE Borough Office - Bronx,"SAFFER, NANCY",School Support Team 10- Bronx,NULL,NULL,NULL,205,46
2020,10X237,X237,"The Marie Curie School for Medicine, Nursing, and",321000011237,DOE,General Academic,High school,"09,10,11,12,SE","09,10,11,12",2004-09-08T00:00:00.000,Open,X143,120 WEST 231 STREET,NY,1011472,258311,-73.901565,40.875636,208,14,27300,2032530141,BX28,Van Cortlandt Village,Peta Gaye Williams,I.A. Principal,718-432-6491,718-796-7051,10,10,NULL,NULL,NYCDOE Borough Office - Bronx,"SAFFER, NANCY",School Support Team 1- Bronx,HS02,HS Network 02 Superintendent Office,"STAPLE, CARRON",208,50
2020,09X239,X239,Urban Assembly Academy for History and Citizenship,320900011239,DOE,General Academic,High school,"10,11,12,SE","09,10,11,12",2004-09-08T00:00:00.000,Closed,X410,240 EAST 172 STREET,NY,1008775,245072,-73.911366,40.839307,204,16,22500,2028170002,BX14,East Concourse-Concourse Village,Avis Terrell,PRINCIPAL,718-293-6768,718-293-4084,9,9,COMMUNITY SCHOOL DISTRICT 09,NULL,NULL,NULL,NULL,NULL,NULL,NULL,204,44
2020,09X241,X241,Urban Assembly School for Applied Math and Science,320900011241,DOE,General Academic,Secondary School,"06,07,08,09,10,11,12,SE","06,07,08,09,10,11,12",2004-09-08T00:00:00.000,Open,X970,1595 BATHGATE AVENUE,NY,1011429,245148,-73.901774,40.839508,203,16,16700,2029130001,BX01,Claremont-Bathgate,Ingrid Chung,Principal,718-466-7800,718-466-7801,9,9,NULL,NULL,NYCDOE Citywide Office - Affinity Schools,NULL,School Support Team 4- Affinity Group,HS03,HS Network 03 Superintendent Office,"WALSH, FRED",203,42
2020,12X242,X242,Mott Hall V,321200010242,DOE,General Academic,Secondary School,"06,07,08,09,10,11,12,SE","06,07,08,09,10,11,12",2005-07-01T00:00:00.000,Open,X423,1551 EAST 172ND STREET,NY,1017958,242606,-73.878191,40.832508,209,18,5600,2038640001,BX08,West Farms-Bronx River,PETER OROSZLANY,Principal,718-620-8160,718-620-8161,12,12,COMMUNITY SCHOOL DISTRICT 12,"ROSADO, JACQUELINE",NYCDOE Borough Office - Bronx,"SAFFER, NANCY",School Support Team 5- Bronx,NULL,NULL,NULL,209,43
2020,10X243,X243,West Bronx Academy for the Future,321000011243,DOE,General Academic,Secondary School,"06,07,08,09,10,11,12,SE","06,07,08,09,10,11,12",2004-09-08T00:00:00.000,Open,X435,500 EAST FORDHAM ROAD,NY,1015058,252424,-73.888625,40.859466,206,15,38700,2030590001,BX06,Belmont,WILPER MORALES,Principal,718-563-7139,718-563-7362,10,10,NULL,NULL,NYCDOE Citywide Office - Affinity Schools,NULL,School Support Team 2- Affinity Group,HS07,HS Network 07 Superintendent Office,"CINTRON, RICHARD",206,48
2020,10X244,X244,The New School for Leadership and Journalism,321000010244,DOE,General Academic,Junior High-Intermediate-Middle,"06,07,08,SE","06,07,08",2005-07-01T00:00:00.000,Open,X143,120 WEST 231 STREET,NY,1011472,258311,-73.901565,40.875636,208,14,27300,2032530141,BX28,Van Cortlandt Village,Eduardo Mora,Principal,718-601-2869,718-601-2867,10,10,COMMUNITY SCHOOL DISTRICT 10,"HULLA, MARIBEL",NYCDOE Borough Office - Bronx,"SAFFER, NANCY",School Support Team 4- Bronx,NULL,NULL,NULL,208,50
2020,12X245,X245,New Day Academy,321200011245,DOE,General Academic,Secondary School,"08,10,11,12,SE","06,07,08,09,10,11,12,SE",2005-07-01T00:00:00.000,Closed,X158,800 HOME STREET,NY,1011761,240567,-73.900593,40.826933,203,16,13100,2026710011,BX33,Longwood,Mara Ganeles,PRINCIPAL,718-542-1155,718-589-8067,12,12,COMMUNITY SCHOOL DISTRICT 12,NULL,NULL,NULL,NULL,HS08,HS Network 08,"LINDSEY, ELAINE",203,42
2020,10X246,X246,P.S. 246 Poe Center,321000010246,DOE,General Academic,Elementary,"0K,01,02,03,04,05,SE","0K,01,02,03,04,05,06",1990-12-06T00:00:00.000,Open,X843,2641 GRAND CONCOURSE,NY,1013209,254792,-73.8953,40.865972,207,14,40100,2031680027,BX05,Bedford Park-Fordham North,Andrea Johnson,Principal,718-584-6764,718-584-7005,10,10,COMMUNITY SCHOOL DISTRICT 10,"HULLA, MARIBEL",NYCDOE Borough Office - Bronx,"SAFFER, NANCY",School Support Team 3- Bronx,NULL,NULL,NULL,207,52
